city_id	city_name	state_code	country_code	lat	lon
735563	Kozáni	ESYE13	GR	40.30069	21.78896
735640	Komotiní	ESYE11	GR	41.11917	25.40535
2995041	Maurepas	11	FR	48.76486	1.92923
2996180	Manosque	93	FR	43.82883	5.78688
3000192	Les Mureaux	11	FR	48.99173	1.90972
735736	Kilkís	ESYE12	GR	40.99302	22.87433
3004427	Le Creusot	27	FR	46.80714	4.41632
3019256	Évry	11	FR	48.63333	2.45
3019265	Évreux	28	FR	49.02414	1.15082
3021411	Dieppe	28	FR	49.93333	1.08333
3022530	Créteil	11	FR	48.78333	2.46667
3029241	Caen	28	FR	49.18585	-0.35912
3029276	Cachan	11	FR	48.79632	2.33661
3030300	Brest	53	FR	48.4	-4.48333
3030303	Bressuire	75	FR	46.85	-0.48333
3035654	Avon	11	FR	48.40219	2.72022
3035667	Avion	32	FR	50.41038	2.83053
3037854	Amiens	32	FR	49.9	2.3
3108165	Teo	58	ES	42.75	-8.5
2509305	Zubia	51	ES	37.11906	-3.584
2509377	Zafra	57	ES	38.41667	-6.41667
2509402	Yecla	31	ES	38.61365	-1.11468
2509463	Villena	60	ES	38.6373	-0.86568
2509491	Villarrobledo	54	ES	39.26992	-2.60119
2509509	Vila-real	60	ES	39.9383	-0.10087
2509553	Villanueva de la Serena	57	ES	38.97655	-5.7974
2509588	Villajoyosa	60	ES	38.50754	-0.23346
2509650	Vícar	51	ES	36.83155	-2.64273
2509769	Vélez-Málaga	51	ES	36.78107	-4.10266
2509954	Valencia	60	ES	39.46975	-0.37739
2509982	Valdepeñas	54	ES	38.76211	-3.38483
2510073	Utrera	51	ES	37.18516	-5.78093
2510112	Ubrique	51	ES	36.67777	-5.446
2510116	Úbeda	51	ES	38.01328	-3.3705
2510224	Totana	31	ES	37.7688	-1.50229
2510245	Torrox	51	ES	36.75793	-3.95233
2510253	Torrevieja	60	ES	37.97872	-0.68222
2510271	Torre-Pacheco	31	ES	37.74293	-0.95396
2510279	Torrent	60	ES	39.43705	-0.46546
2510281	Torremolinos	51	ES	36.62035	-4.49976
1185188	Rangpur	87	BD	25.74664	89.25166
1337248	Sherpur	H	BD	25.01881	90.01751
2994087	Meylan	84	FR	45.21988	5.79007
2995121	Mauguio	76	FR	43.6181	4.00739
735861	Kavála	ESYE11	GR	40.93959	24.40687
2995150	Maubeuge	32	FR	50.27875	3.97267
2995206	Massy	11	FR	48.72692	2.28301
2967438	Wasquehal	32	FR	50.67043	3.13382
2970110	Vendôme	24	FR	47.8	1.06667
2998286	Limoges	75	FR	45.83153	1.25781
2972049	Trappes	11	FR	48.77413	2.01781
3010025	La Ciotat	93	FR	43.17476	5.60449
3012937	Hyères	93	FR	43.11954	6.13897
3040051	les Escaldes	8	AD	42.50729	1.53414
3041563	Andorra la Vella	7	AD	42.50779	1.52109
290594	Umm al Qaywayn	7	AE	25.56473	55.55517
291074	Ras al-Khaimah	5	AE	25.78953	55.9432
291696	Khawr Fakkān	6	AE	25.33132	56.34199
292223	Dubai	3	AE	25.0657	55.17128
292231	Dibba Al-Fujairah	4	AE	25.59246	56.26176
292672	Sharjah	6	AE	25.33737	55.41206
292688	Ar Ruways	1	AE	24.11028	52.73056
292878	Al Fujayrah	4	AE	25.11641	56.34141
292913	Al Ain	1	AE	24.19167	55.76056
292932	Ajman	2	AE	25.41111	55.43504
292953	Adh Dhayd	6	AE	25.28812	55.88157
292968	Abu Dhabi	1	AE	24.46667	54.36667
1120985	Zaranj	19	AF	30.95962	61.86037
1123004	Taloqan	26	AF	36.73605	69.53451
1125155	Shīnḏanḏ	11	AF	33.30294	62.1474
1125444	Shibirghān	31	AF	36.66757	65.7529
1125896	Shahrak	9	AF	34.10737	64.3052
1127110	Sar-e Pul	33	AF	36.21544	65.93249
1127628	Sang-e Chārak	33	AF	35.84972	66.43694
1127768	Aībak	32	AF	36.26468	68.01551
1128265	Rustāq	26	AF	37.12604	69.83045
1129516	Qarqīn	31	AF	37.41853	66.04358
1129648	Qarāwul	24	AF	37.21959	68.7802
1130490	Pul-e Khumrī	3	AF	35.94458	68.71512
1131316	Paghmān	13	AF	34.58787	68.95091
1132495	Nahrīn	3	AF	36.0649	69.13343
1133453	Maymana	7	AF	35.92139	64.78361
1133574	Mehtar Lām	35	AF	34.67139	70.20944
1133616	Mazār-e Sharīf	30	AF	36.70904	67.11087
1134720	Lashkar Gāh	10	AF	31.59382	64.37161
1135158	Kushk	11	AF	33.29565	61.95221
1135689	Kunduz	24	AF	36.72895	68.857
1136469	Khōst	37	AF	33.33951	69.92041
1136575	Khulm	30	AF	36.69736	67.69826
1136863	Khāsh	19	AF	31.52919	62.79055
1137168	Khanabad	24	AF	36.6825	69.11556
1137807	Karukh	11	AF	34.48108	62.5863
1138336	Kandahār	23	AF	31.61332	65.71013
1138958	Kabul	13	AF	34.52813	69.17233
1139715	Jalālābād	18	AF	34.42647	70.45153
1139807	Jabal os Saraj	40	AF	35.11833	69.23778
1140026	Herāt	11	AF	34.34817	62.19967
1141089	Ghormach	2	AF	35.73062	63.78264
1141269	Ghazni	8	AF	33.55391	68.42096
1141540	Gereshk	10	AF	31.82089	64.57005
1141857	Gardez	36	AF	33.59744	69.22592
1142170	Fayzabad	1	AF	37.11664	70.58002
1142264	Farah	6	AF	32.37451	62.11638
1142404	Kafir Qala	11	AF	34.66667	61.06667
1145352	Charikar	40	AF	35.01361	69.17139
1147066	Baraki Barak	17	AF	33.96744	68.9492
1147242	Bāmyān	5	AF	34.82156	67.82734
1147290	Balkh	30	AF	36.75635	66.8972
1147540	Baghlān	3	AF	36.13068	68.70829
1148106	Ārt Khwājah	26	AF	37.08571	69.47958
1148205	Āsmār	34	AF	35.03333	71.35809
1148311	Asadābād	34	AF	34.87311	71.14697
1148658	Andkhōy	7	AF	36.95293	65.12376
1429434	Bāzārak	42	AF	35.31292	69.51519
1469706	Markaz-e Woluswalī-ye Āchīn	18	AF	34.12583	70.70778
3576022	Saint John’s	4	AG	17.11717	-61.84573
3573374	The Valley	11205396	AI	18.21704	-63.05783
363243	Sarandë	51	AL	39.87556	20.00528
782661	Kukës	47	AL	42.07694	20.42194
782756	Korçë	46	AL	40.61861	20.78083
783148	Gjirokastër	45	AL	40.07583	20.13889
783263	Elbasan	43	AL	41.1125	20.08222
783493	Burrel	41	AL	41.61028	20.00889
3183719	Vlorë	51	AL	40.46667	19.48972
3183875	Tirana	50	AL	41.3275	19.81889
3184081	Shkodër	49	AL	42.06828	19.51258
3184517	Patos Fshat	44	AL	40.64278	19.65083
3184862	Lushnjë	44	AL	40.94194	19.705
3184935	Lezhë	48	AL	41.78361	19.64361
3185012	Laç	48	AL	41.63556	19.71306
3185060	Kuçovë	40	AL	40.80028	19.91667
3185082	Krujë	42	AL	41.50917	19.79278
3185211	Kavajë	50	AL	41.18556	19.55694
3185670	Fier-Çifçi	44	AL	40.71667	19.56667
3185672	Fier	44	AL	40.72389	19.55611
3185728	Durrës	42	AL	41.32306	19.44139
3186084	Berat	40	AL	40.70583	19.95222
174875	Kapan	8	AM	39.20755	46.40576
174895	Goris	8	AM	39.51111	46.34168
174972	Hats’avan	8	AM	39.46405	45.97047
174979	Artashat	2	AM	39.96144	44.54447
174991	Ararat	2	AM	39.83069	44.70569
616052	Yerevan	11	AM	40.18111	44.51361
616062	Ejmiatsin	3	AM	40.16557	44.29462
616194	Step’anavan	6	AM	41.00995	44.38531
616199	Spitak	6	AM	40.83221	44.26731
616250	Sevan	4	AM	40.5473	44.94171
616435	Masis	2	AM	40.06542	44.41618
616530	Vanadzor	6	AM	40.80456	44.4939
616599	Gavarr	4	AM	40.35398	45.12386
616629	Hrazdan	5	AM	40.49748	44.7662
616631	Armavir	3	AM	40.15446	44.03815
616635	Gyumri	7	AM	40.7942	43.84528
616877	Ashtarak	1	AM	40.2991	44.36204
617026	Abovyan	5	AM	40.27368	44.63348
145531	Saurimo	18	AO	-9.66078	20.39155
145724	Lucapa	17	AO	-8.41915	20.74466
876177	Luau	14	AO	-10.70727	22.22466
2236568	Uíge	15	AO	-7.60874	15.06131
2236967	Soio	16	AO	-6.1349	12.36894
2239001	Nzeto	16	AO	-7.23116	12.8666
2239076	N’dalatando	5	AO	-9.29782	14.91162
2239520	Mbanza Congo	16	AO	-6.26703	14.2401
2239862	Malanje	12	AO	-9.54015	16.34096
2240449	Luanda	20	AO	-8.83682	13.23432
2242001	Caxito	19	AO	-8.57848	13.66425
2243271	Cabinda	3	AO	-5.55	12.2
3346015	Sumbe	6	AO	-11.20605	13.84371
3347019	Namibe	13	AO	-15.19611	12.15222
3347353	Menongue	4	AO	-14.6585	17.69099
3347719	Luena	14	AO	-11.78333	19.91667
3347762	Lubango	9	AO	-14.91717	13.4925
3347853	Longonjo	8	AO	-12.90667	15.25333
3347939	Lobito	1	AO	-12.3644	13.53601
3348078	Cuito	2	AO	-12.38333	16.93333
3348313	Huambo	8	AO	-12.77611	15.73917
3350246	Catumbela	1	AO	-12.43002	13.54677
3350372	Catabola	2	AO	-12.15	17.28333
3351014	Camacupa	2	AO	-12.01667	17.48333
3351024	Caluquembe	9	AO	-13.78333	14.68333
3351500	Caála	8	AO	-12.8525	15.56056
3351663	Benguela	1	AO	-12.57626	13.40547
3427213	Zárate	1	AR	-34.09814	-59.02858
3427388	Villa Ocampo	21	AR	-28.48752	-59.35515
3427408	Villa Lugano	7	AR	-34.67907	-58.47263
3427428	Villaguay	8	AR	-31.8653	-59.02689
3427431	Villa Gesell	1	AR	-37.26394	-56.97304
3427761	Tigre	1	AR	-34.42603	-58.57962
3427833	Tandil	1	AR	-37.32167	-59.13316
3428068	San Vicente	14	AR	-26.61667	-54.13333
3428071	Santo Tomé	6	AR	-28.54939	-56.04077
3428359	Santa Elena	8	AR	-30.94768	-59.78696
3428577	San Pedro	14	AR	-26.62207	-54.10842
3428708	San Luis del Palmar	6	AR	-27.5079	-58.55454
3428759	San Lorenzo	6	AR	-28.13306	-58.76733
3428975	San Javier	21	AR	-30.57781	-59.9317
3428992	San Isidro	1	AR	-34.4721	-58.52708
3429403	Saladas	6	AR	-28.25384	-58.62591
3429576	Retiro	7	AR	-34.58333	-58.38333
3429577	Resistencia	3	AR	-27.46056	-58.98389
3429594	Reconquista	21	AR	-29.15	-59.65
3429652	Quilmes	1	AR	-34.72904	-58.26374
3429732	Puerto Rico	14	AR	-26.79598	-55.02402
3429777	Puerto Iguazú	14	AR	-25.59912	-54.57355
3429786	Puerto Esperanza	14	AR	-26.01517	-54.67306
3429790	Puerto Eldorado	14	AR	-26.40843	-54.69463
3429886	Posadas	14	AR	-27.36708	-55.89608
3429902	Pontevedra	1	AR	-34.74785	-58.70072
3429949	Pirané	9	AR	-25.73239	-59.10879
3430104	Paso de los Libres	6	AR	-29.71251	-57.08771
3430340	Oberá	14	AR	-27.48706	-55.11994
3430443	Necochea	1	AR	-38.5545	-58.73961
3430545	Morón	1	AR	-34.6509	-58.61956
3430598	Monte Caseros	6	AR	-30.25359	-57.63626
3430601	Montecarlo	14	AR	-26.5662	-54.757
3430708	Mercedes	1	AR	-34.65145	-59.43068
3430709	Mercedes	6	AR	-29.18416	-58.07519
3430863	Mar del Plata	1	AR	-38.00228	-57.55754
3430988	Luján	1	AR	-34.57028	-59.105
3432043	La Plata	1	AR	-34.92145	-57.95453
3432079	La Paz	8	AR	-30.74485	-59.64566
3433349	Jardín América	14	AR	-27.04346	-55.22698
3433658	Gualeguaychú	8	AR	-33.00937	-58.51722
3433663	Gualeguay	8	AR	-33.14156	-59.30966
3433715	Goya	6	AR	-29.14395	-59.2651
3433753	Gobernador Ingeniero Valentín Virasoro	6	AR	-28.05	-56.03333
3433803	General José de San Martín	3	AR	-26.53743	-59.34158
3433836	Garupá	14	AR	-27.48171	-55.82921
3433899	Formosa	9	AR	-26.17753	-58.17814
3433901	Fontana	3	AR	-27.41813	-59.02392
3433956	Federal	8	AR	-30.95465	-58.78326
3434095	Esquina	6	AR	-30.01444	-59.52719
3434291	El Soberbio	14	AR	-27.29847	-54.19877
3435038	Dolores	1	AR	-36.31321	-57.67918
3435103	Curuzú Cuatiá	6	AR	-29.79171	-58.0546
3435217	Corrientes	6	AR	-27.4806	-58.8341
3435261	Concordia	8	AR	-31.39296	-58.02089
3435264	Concepción del Uruguay	8	AR	-32.48249	-58.23722
3435356	Colegiales	7	AR	-34.57365	-58.44924
3435486	Chajarí	8	AR	-30.75048	-57.97962
3435810	Campana	1	AR	-34.16874	-58.95914
3435910	Buenos Aires	7	AR	-34.61315	-58.37723
3436124	Barranqueras	3	AR	-27.48132	-58.93925
3436199	Azul	1	AR	-36.77698	-59.85854
3436230	Avellaneda	21	AR	-29.11761	-59.65834
3436287	Aristóbulo del Valle	14	AR	-27.09625	-54.89626
3832132	Zapala	15	AR	-38.89916	-70.05442
3832260	Yerba Buena	24	AR	-26.81667	-65.31667
3832647	Villa Regina	16	AR	-39.1	-67.06667
3832653	Villa Paula de Sarmiento	18	AR	-31.4933	-68.53838
3832662	Villa Nueva	5	AR	-32.43293	-63.24763
3832694	Villa María	5	AR	-32.40751	-63.24016
3832756	Villa Dolores	5	AR	-31.94585	-65.18958
3832778	Villa Constitución	21	AR	-33.22778	-60.3297
3832791	Villa Carlos Paz	5	AR	-31.42414	-64.49778
3832811	Villa Ángela	3	AR	-27.57383	-60.71526
3832815	Villa Allende	5	AR	-31.29458	-64.29538
3832899	Viedma	16	AR	-40.81345	-62.99668
3832934	Victoria	8	AR	-32.61841	-60.15478
3833027	Vera	21	AR	-29.4593	-60.21261
3833062	Venado Tuerto	21	AR	-33.74556	-61.96885
3833112	Veinticinco de Mayo	1	AR	-35.4323	-60.17271
3833367	Ushuaia	23	AR	-54.8	-68.3
3833412	Unquillo	5	AR	-31.23073	-64.31615
3833794	Tres Isletas	3	AR	-26.34067	-60.43207
3833859	Tres Arroyos	1	AR	-38.37394	-60.27978
3833883	Trelew	4	AR	-43.24895	-65.30505
3834502	Termas de Río Hondo	22	AR	-27.49362	-64.85972
3834601	Tartagal	17	AR	-22.51637	-63.80131
3834813	Tafí Viejo	24	AR	-26.73201	-65.25921
3834971	Sunchales	21	AR	-30.94404	-61.56148
3835793	Santo Tomé	21	AR	-31.66274	-60.7653
3835869	Santiago del Estero	22	AR	-27.79511	-64.26149
3835994	Santa Rosa	11	AR	-36.61667	-64.28333
3836194	Santa Lucía	18	AR	-31.53987	-68.49503
3836277	Santa Fe de la Vera Cruz	21	AR	-31.63333	-60.7
3836564	San Salvador de Jujuy	10	AR	-24.19457	-65.29712
3836620	San Ramón de la Nueva Orán	17	AR	-23.13705	-64.32426
3836669	San Rafael	13	AR	-34.61772	-68.33007
3836772	San Pedro	10	AR	-24.23127	-64.86614
3836846	San Nicolás de los Arroyos	1	AR	-33.33578	-60.22523
3836873	San Miguel de Tucumán	24	AR	-26.82414	-65.2226
3836951	San Martín de los Andes	15	AR	-40.15789	-71.35337
3836992	San Martín	13	AR	-33.08103	-68.46814
3837056	San Luis	19	AR	-33.29501	-66.33563
3837124	San Justo	21	AR	-30.78913	-60.59189
3837213	San Juan	18	AR	-31.5375	-68.53639
3837240	San José de Jáchal	18	AR	-30.24057	-68.74693
3837441	San Jorge	21	AR	-31.89618	-61.85984
3837675	San Francisco	5	AR	-31.42797	-62.08266
3837702	San Fernando del Valle de Catamarca	2	AR	-28.46957	-65.78524
3838233	Salta	17	AR	-24.7859	-65.41166
3838506	Rufino	21	AR	-34.26827	-62.71262
3838583	Rosario	21	AR	-32.94682	-60.63932
3838793	Río Tercero	5	AR	-32.17301	-64.11405
3838797	Río Segundo	5	AR	-31.6526	-63.9099
3838859	Río Gallegos	20	AR	-51.62261	-69.21813
3838874	Río Cuarto	5	AR	-33.13067	-64.34992
3838902	Río Ceballos	5	AR	-31.16486	-64.32241
3839307	Rawson	4	AR	-43.30016	-65.10228
3839479	Rafaela	21	AR	-31.25033	-61.4867
3839490	Quitilipi	3	AR	-26.86913	-60.21683
3839982	Punta Alta	1	AR	-38.87588	-62.07359
3840092	Puerto Madryn	4	AR	-42.7692	-65.03851
3840300	Presidencia Roque Sáenz Peña	3	AR	-26.78522	-60.43876
3840860	Pocito	18	AR	-31.68333	-68.58333
3840885	Plottier	15	AR	-38.96667	-68.23333
3841490	Pergamino	1	AR	-33.88995	-60.57357
3841500	Pérez	21	AR	-32.99835	-60.76791
3841956	Paraná	8	AR	-31.73197	-60.5238
3842190	Palpalá	10	AR	-24.25647	-65.21163
3842670	Olavarría	1	AR	-36.89272	-60.32254
3842881	Nueve de Julio	1	AR	-35.44437	-60.88313
3843123	Neuquén	15	AR	-38.95161	-68.0591
3843619	Morteros	5	AR	-30.71164	-61.99862
3843803	Monteros	24	AR	-27.16741	-65.49832
3844421	Mendoza	13	AR	-32.89084	-68.82717
3844899	Marcos Juárez	5	AR	-32.6978	-62.10672
3845330	Machagai	3	AR	-26.92614	-60.04955
3014383	Guéret	75	FR	46.16667	1.86667
3846864	Lincoln	1	AR	-34.86649	-61.5302
3846915	Libertador General San Martín	10	AR	-23.80644	-64.78757
3848687	Las Breñas	3	AR	-27.08966	-61.08161
3848950	La Rioja	12	AR	-29.41105	-66.85067
3851331	La Falda	5	AR	-31.08841	-64.48987
3852374	La Calera	5	AR	-31.34377	-64.33529
3852468	Laboulaye	5	AR	-34.12662	-63.39119
3853354	Junín	1	AR	-34.58382	-60.94332
3853491	Joaquín V. González	17	AR	-25.08333	-64.18333
3853510	Jesús María	5	AR	-30.98153	-64.09424
3854895	Granadero Baigorria	21	AR	-32.85683	-60.71754
3854985	Gobernador Gálvez	21	AR	-33.03016	-60.64045
3855041	General Villegas	1	AR	-35.03285	-63.01252
3855065	General Roca	16	AR	-39.03333	-67.58333
3855074	General Pinedo	3	AR	-27.31667	-61.28333
3855075	General Pico	11	AR	-35.65662	-63.75682
3855116	General Enrique Mosconi	17	AR	-22.59588	-63.81255
3855244	Gálvez	21	AR	-32.02927	-61.22103
3855554	Firmat	21	AR	-33.45937	-61.4832
3855666	Famaillá	24	AR	-27.05413	-65.40329
3855974	Esquel	4	AR	-42.91147	-71.31947
3856022	Esperanza	21	AR	-31.4488	-60.93173
3856231	Embarcación	17	AR	-23.21003	-64.09965
3856235	Embalse	5	AR	-32.18	-64.41809
3858765	El Bolsón	16	AR	-41.96051	-71.53336
3859384	Diamante	8	AR	-32.06641	-60.63837
3859512	Deán Funes	5	AR	-30.42036	-64.34984
3859552	Cutral-Có	15	AR	-38.93424	-69.23052
3859828	Cruz del Eje	5	AR	-30.72644	-64.80387
3859904	Crespo	8	AR	-32.02873	-60.30658
3859965	Cosquín	5	AR	-31.24508	-64.46563
3860164	Coronel Suárez	1	AR	-37.45467	-61.93343
3860217	Coronda	21	AR	-31.97263	-60.91983
3860259	Córdoba	5	AR	-31.4135	-64.18105
3860443	Comodoro Rivadavia	4	AR	-45.86413	-67.49656
3861056	Cipolletti	16	AR	-38.93392	-67.99032
3861061	Cinco Saltos	16	AR	-38.82225	-68.06293
3861344	Chivilcoy	1	AR	-34.89566	-60.01667
3861416	Chimbas	18	AR	-31.48333	-68.53333
3861445	Chilecito	12	AR	-29.16195	-67.4974
3861678	Charata	3	AR	-27.21438	-61.18795
3861953	Chacabuco	1	AR	-34.64167	-60.47389
3862144	Centenario	15	AR	-38.82955	-68.1318
3862240	Caucete	18	AR	-31.65179	-68.28105
3862254	Catriel	16	AR	-37.87907	-67.7956
3862320	Castelli	3	AR	-25.94679	-60.61947
3862351	Casilda	21	AR	-33.04417	-61.16806
3862655	Carcarañá	21	AR	-32.85679	-61.15331
3862738	Capitán Bermúdez	21	AR	-32.82262	-60.71852
3862981	Cañada de Gómez	21	AR	-32.81636	-61.39493
3863379	Caleta Olivia	20	AR	-46.43929	-67.52814
3864331	Bell Ville	5	AR	-32.62591	-62.68873
3864375	Bella Vista	24	AR	-27.03424	-65.30196
3865086	Bahía Blanca	1	AR	-38.71959	-62.27243
3865385	Arroyo Seco	21	AR	-33.15489	-60.50863
3865424	Arroyito	5	AR	-31.42022	-63.05002
3865840	Añatuya	22	AR	-28.46064	-62.83472
3866163	Alta Gracia	5	AR	-31.65292	-64.42826
3866242	Allen	16	AR	-38.97736	-67.82714
3866367	Alderetes	24	AR	-26.81667	-65.13333
3866425	Albardón	18	AR	-31.43722	-68.52556
3866496	Aguilares	24	AR	-27.4338	-65.61427
6693230	Villa Santa Rita	7	AR	-34.61082	-58.481
7116866	Villa Mercedes	19	AR	-33.67571	-65.45783
7647007	San Carlos de Bariloche	16	AR	-41.14557	-71.30822
10172104	Adrogué	1	AR	-34.80041	-58.38384
5881576	Pago Pago	10	AS	-14.27806	-170.7025
2760910	Wolfsberg	2	AT	46.84056	14.84417
2761353	Wiener Neustadt	3	AT	47.8	16.25
2761369	Vienna	9	AT	48.20849	16.37208
2761524	Wels	4	AT	48.16667	14.03333
2761669	Weinzierl bei Krems	3	AT	48.4	15.6
2762372	Villach	2	AT	46.61028	13.85583
2763423	Traun	4	AT	48.22656	14.23459
2763460	Traiskirchen	3	AT	48.01485	16.29324
2763795	Ternitz	3	AT	47.71565	16.03575
2764359	Steyr	4	AT	48.04274	14.42127
2764786	Spittal an der Drau	2	AT	46.8	13.5
2765388	Schwechat	3	AT	48.13333	16.46667
3014392	Guérande	52	FR	47.32911	-2.42829
2766429	Sankt Pölten	3	AT	48.2	15.63333
2766824	Salzburg	5	AT	47.79941	13.04399
2766922	Saalfelden am Steinernen Meer	5	AT	47.42681	12.848
2771335	Mödling	3	AT	48.08605	16.28921
2991772	Morlaix	53	FR	48.58333	-3.83333
2772173	Lustenau	8	AT	47.42642	9.65851
2772400	Linz	4	AT	48.30639	14.28611
2772635	Leonding	4	AT	48.27965	14.2533
2772649	Leoben	6	AT	47.3765	15.09144
2773300	Kufstein	7	AT	47.58333	12.16667
2773549	Krems an der Donau	3	AT	48.40921	15.61415
2773913	Klosterneuburg	3	AT	48.30521	16.32522
2774326	Klagenfurt am Wörthersee	2	AT	46.62472	14.30528
2774773	Kapfenberg	6	AT	47.44458	15.29331
2775220	Innsbruck	7	AT	47.26266	11.39454
2776951	Hallein	5	AT	47.68333	13.1
1203891	Dinājpur	87	BD	25.62745	88.63779
2778067	Graz	6	AT	47.06667	15.45
2779674	Feldkirch	8	AT	47.23306	9.6
2780741	Dornbirn	8	AT	47.41427	9.74195
2781503	Bregenz	8	AT	47.50311	9.7471
2781520	Braunau am Inn	4	AT	48.25628	13.04343
2782067	Baden	3	AT	48.00543	16.23264
2782555	Amstetten	3	AT	48.1229	14.87206
3323063	Ansfelden	5	AT	47.965	13.04944
735914	Kateríni	ESYE12	GR	40.26956	22.50608
148106	Fizuli	18	AZ	39.60094	47.14529
148354	Beylagan	12	AZ	39.77556	47.61861
2158651	Maroubra	2	AU	-33.95	151.23333
2160582	Langwarrin	7	AU	-38.16667	145.16667
2992616	Montfermeil	11	FR	48.8982	2.57913
2167949	Earlwood	2	AU	-33.95	151.1
2993024	Montargis	24	FR	48	2.75
148290	Dzhalilabad	15	AZ	39.20963	48.49186
3577154	Oranjestad	0	AW	12.52398	-70.02703
3577277	Babijn	0	AW	12.53333	-69.98333
3577284	Angochi	0	AW	12.51667	-69.95
146970	Xankandi	61	AZ	39.8177	46.7528
147059	Əhmədbəyli	45	AZ	39.87867	48.39901
147105	Shushi	55	AZ	39.76006	46.74989
147271	Salyan	49	AZ	39.59621	48.98479
147288	Saatlı	45	AZ	39.93214	48.36892
147425	Neftçala	36	AZ	39.3768	49.247
147429	Nakhchivan	35	AZ	39.20889	45.41222
147622	Lankaran	29	AZ	38.75428	48.85062
147982	Imishli	24	AZ	39.87095	48.05995
148340	Pushkino	13	AZ	39.45833	48.545
148445	Astara	8	AZ	38.45598	48.87498
148565	Şirvan	7	AZ	39.93778	48.929
148619	Ağdam	3	AZ	39.99096	46.92736
584596	Zaqatala	70	AZ	41.6316	46.64479
584614	Zabrat	9	AZ	40.47746	49.94174
584649	Yevlakh	68	AZ	40.61832	47.15014
584716	Yelenendorf	62	AZ	40.58584	46.3189
584717	Xaçmaz	60	AZ	41.46426	48.80565
584791	Ujar	59	AZ	40.51902	47.65423
584871	Terter	57	AZ	40.34179	46.93242
584923	Sumqayıt	54	AZ	40.58972	49.66861
585103	Qaraçuxur	9	AZ	40.39667	49.97361
585152	Shamkhor	51	AZ	40.82975	46.0178
585156	Shamakhi	50	AZ	40.63141	48.64137
585170	Sheki	48	AZ	41.19194	47.17056
585184	Sabunçu	9	AZ	40.4425	49.94806
585187	Sabirabad	46	AZ	40.00869	48.47701
585220	Qusar	44	AZ	41.4275	48.4302
585221	Quba	42	AZ	41.36108	48.51341
585225	Hacıqabul	23	AZ	40.03874	48.94286
585226	Qazax	40	AZ	41.09246	45.36561
585379	Hacı Zeynalabdin	54	AZ	40.62333	49.55861
585514	Mingelchaur	33	AZ	40.76395	47.05953
585557	Maştağa	9	AZ	40.52983	50.00616
585568	Mardakan	9	AZ	40.49182	50.14292
585630	Lökbatan	9	AZ	40.3256	49.73376
585763	Kyurdarmir	27	AZ	40.34532	48.15085
585915	Khirdalan	1	AZ	40.44808	49.75502
586340	Yeni Suraxanı	9	AZ	40.43026	50.03598
586427	Geoktschai	22	AZ	40.65055	47.74219
586429	Hövsan	9	AZ	40.37444	50.08528
586523	Ganja	20	AZ	40.68278	46.36056
586763	Divichibazar	17	AZ	41.20117	48.98712
586925	Buzovna	9	AZ	40.51903	50.11438
586968	Biny Selo	9	AZ	40.45076	50.08686
587057	Barda	11	AZ	40.37577	47.12619
587078	Bilajari	9	AZ	40.4444	49.80566
587084	Baku	9	AZ	40.37767	49.89201
587261	Amirdzhan	9	AZ	40.42639	49.98361
587361	Aghsu	6	AZ	40.57028	48.40087
587378	Ağdaş	4	AZ	40.64699	47.4738
587384	Agdzhabedy	2	AZ	40.05015	47.45937
824003	Bakıxanov	9	AZ	40.41894	49.96693
3186573	Zenica	1	BA	44.20169	17.90397
3187609	Visoko	1	BA	43.98889	18.17806
3188225	Velika Kladuša	1	BA	45.18497	15.80579
3188582	Tuzla	1	BA	44.53842	18.66709
3188893	Trebinje	2	BA	42.71197	18.34362
3188924	Travnik	1	BA	44.22637	17.66583
3191281	Sarajevo	1	BA	43.84864	18.35644
3192409	Prijedor	2	BA	44.97991	16.71401
3194828	Mostar	1	BA	43.34333	17.80806
3199744	Gradačac	1	BA	44.87851	18.42764
3199779	Gračanica	1	BA	44.70307	18.3101
2967318	Wittenheim	44	FR	47.8078	7.33702
1185183	Lākshām	84	BD	23.24018	91.12143
3200396	Goražde	1	BA	43.66795	18.97564
3201984	Doboj	2	BA	44.73179	18.08698
2989204	Orsay	11	FR	48.69572	2.18727
3202822	Cazin	1	BA	44.96694	15.94306
3203099	Bugojno	1	BA	44.05722	17.45083
3203521	Brčko	BRC	BA	44.86995	18.81012
3203653	Bosanska Krupa	1	BA	44.8825	16.15139
3204186	Bijeljina	2	BA	44.75874	19.21437
3204222	Bihać	1	BA	44.81694	15.87083
3204541	Banja Luka	2	BA	44.77842	17.19386
1185186	Comilla	84	BD	23.46186	91.18503
3337476	Konjic	1	BA	43.65126	17.96082
3374036	Bridgetown	8	BB	13.10732	-59.62021
1185092	Thākurgaon	87	BD	26.03097	88.46989
1185095	Teknāf	84	BD	20.85829	92.29773
1185098	Tungi	81	BD	23.89154	90.40232
1185099	Sylhet	86	BD	24.89904	91.87198
1185100	Dohār	81	BD	23.59311	90.14251
1185106	Jamālpur	H	BD	24.91965	89.94812
1185108	Shibganj	83	BD	24.68501	88.15638
1185111	Sātkhira	82	BD	22.70817	89.07185
1185115	Sirājganj	83	BD	24.45771	89.70802
1185116	Netrakona	H	BD	24.88352	90.72898
1185117	Narsingdi	81	BD	23.92298	90.71768
1185120	Sandwīp	84	BD	22.51409	91.45491
1185121	Shāhzādpur	83	BD	24.17687	89.5988
1185127	Rāmganj	84	BD	23.1006	90.84989
1185128	Rājshāhi	83	BD	24.374	88.60114
1185138	Pirojpur	85	BD	22.57965	89.97521
1185141	Panchagarh	87	BD	26.33338	88.55777
1185148	Patiya	84	BD	22.29543	91.979
1185149	Parbatipur	87	BD	25.66369	88.93093
1185155	Nārāyanganj	81	BD	23.61352	90.50298
1185156	Nālchiti	85	BD	22.63696	90.27195
1185159	Nāgarpur	81	BD	24.05783	89.87696
1185160	Nageswari	87	BD	25.96817	89.69153
1185162	Mymensingh	H	BD	24.75636	90.40646
1185164	Muktāgācha	H	BD	24.76484	90.25698
1185165	Mirzāpur	81	BD	24.10287	90.09841
1185166	Maulavi Bāzār	86	BD	24.48888	91.77075
1185167	Morrelgonj	82	BD	22.45566	89.85584
1185171	Mehendiganj	85	BD	22.82257	90.52859
1185173	Mathba	85	BD	22.28616	89.95883
1185181	Lalmanirhat	87	BD	25.91719	89.44595
1185191	Kushtia	82	BD	23.9028	89.11943
1185199	Kālīganj	82	BD	23.40964	89.13801
1185204	Jhingergācha	82	BD	23.11134	89.09061
1185206	Joypur Hāt	83	BD	25.10147	89.02734
1185207	Ishurdi	83	BD	24.12858	89.06573
1185209	Habiganj	86	BD	24.38044	91.41299
1185210	Gaurnadi	85	BD	22.97372	90.22376
1185218	Gafargaon	H	BD	24.432	90.5585
1185224	Feni	84	BD	23.0144	91.3966
1185236	Rāipur	84	BD	23.0391	90.76808
1185239	Sarankhola	82	BD	22.31006	89.79113
1185241	Dhaka	81	BD	23.7104	90.40744
1185247	Chilmāri	87	BD	25.55613	89.67097
1185249	Chhāgalnāiya	84	BD	23.02475	91.51091
1185251	Lālmohan	85	BD	22.33774	90.73708
1185252	Khagrachhari	84	BD	23.10787	91.97007
1185254	Chhātak	86	BD	25.03852	91.66958
1185260	Bhātpāra Abhaynagar	82	BD	23.01472	89.43936
1185262	Bherāmāra	82	BD	24.02452	88.99234
1185263	Bhairab Bāzār	81	BD	24.0524	90.9764
1185270	Bāndarban	84	BD	22.19534	92.21946
1185272	Kālia	82	BD	23.043	89.63094
1185274	Baniachang	86	BD	24.51863	91.35787
1185276	Bājitpur	81	BD	24.21623	90.95002
1185283	Badarganj	87	BD	25.67419	89.05377
1185293	Narail	82	BD	23.15509	89.49515
1185920	Tungipāra	81	BD	22.89983	89.90326
1188569	Sarishābāri	H	BD	24.75127	89.83126
1189056	Sakhipur	81	BD	24.31988	90.16943
1189638	Raojān	84	BD	22.53511	91.91919
1191139	Phultala	82	BD	22.71673	89.51194
1191368	Pālang	81	BD	23.21824	90.35076
1192366	Pār Naogaon	83	BD	24.80418	88.94875
1193823	Nabīnagar	84	BD	23.88791	90.96792
1196292	Lakshmīpur	84	BD	22.9443	90.83005
1197895	Kesabpur	82	BD	22.90725	89.21954
1201753	Hājīganj	84	BD	23.25191	90.85508
1203344	Farīdpur	81	BD	23.60612	89.84064
1205481	Uttar Char Fasson	82	BD	22.22647	90.71275
1205733	Chittagong	84	BD	22.3384	91.83168
1207047	Char Bhadrāsan	81	BD	23.30916	90.22698
1209562	Bera	83	BD	24.07821	89.63262
1210565	Burhānuddin	85	BD	22.49518	90.72391
1336133	Sātkania	84	BD	22.07639	92.04955
1336134	Cox’s Bāzār	84	BD	21.43973	92.00955
1336135	Khulna	82	BD	22.80979	89.56439
1336136	Bhola	85	BD	22.68759	90.64403
1336137	Barisāl	85	BD	22.70497	90.37013
1336140	Jessore	82	BD	23.16971	89.21371
1336143	Pābna	83	BD	24.00644	89.2372
1336144	Tāngāil	81	BD	24.24984	89.91655
1337233	Bogra	83	BD	24.85098	89.37108
1337239	Pīrgaaj	87	BD	25.85587	88.35943
1337240	Nawābganj	83	BD	24.59025	88.27444
1337245	Mādārīpur	81	BD	23.17097	90.20935
1337249	Kishorganj	81	BD	24.43944	90.78291
1462681	Manikchari	84	BD	22.83957	91.84128
1477498	Bhāndāria	85	BD	22.48898	90.06273
6414184	Fatikchari	84	BD	22.68768	91.78123
6545349	Saidpur	83	BD	25.77769	88.89169
7701354	Azimpur	81	BD	23.7298	90.3854
9827976	Paltan	81	BD	23.73625	90.41426
2783081	Zwijndrecht	VLG	BE	51.21979	4.32664
2783089	Zwevegem	VLG	BE	50.81268	3.33848
2783175	Zottegem	VLG	BE	50.86955	3.81052
2783188	Zonhoven	VLG	BE	50.99064	5.36819
2783204	Zoersel	VLG	BE	51.26825	4.71296
2783274	Zemst	VLG	BE	50.98318	4.46079
2783293	Zele	VLG	BE	51.06566	4.0403
2783308	Zedelgem	VLG	BE	51.14236	3.1368
2783310	Zaventem	VLG	BE	50.88365	4.47298
2783416	Wuustwezel	VLG	BE	51.39214	4.59546
2783632	Willebroek	VLG	BE	51.06041	4.36019
2783759	Wevelgem	VLG	BE	50.8	3.16667
2783763	Wetteren	VLG	BE	51.00526	3.88341
2783801	Westerlo	VLG	BE	51.09049	4.91544
2783820	Wervik	VLG	BE	50.78069	3.03854
2783941	Wavre	WAL	BE	50.71717	4.60138
2783985	Waterloo	WAL	BE	50.71469	4.3991
2784068	Waregem	VLG	BE	50.88898	3.42756
2784189	Walcourt	WAL	BE	50.25401	4.43796
2784548	Visé	WAL	BE	50.7376	5.69907
2784604	Vilvoorde	VLG	BE	50.92814	4.42938
2784821	Verviers	WAL	BE	50.58907	5.86241
2785141	Turnhout	VLG	BE	51.32254	4.94471
2785169	Tubize	WAL	BE	50.69059	4.2009
2785341	Tournai	WAL	BE	50.60715	3.38932
2785364	Torhout	VLG	BE	51.0656	3.10085
2785389	Tongeren	VLG	BE	50.78054	5.46484
2785470	Tienen	VLG	BE	50.80745	4.9378
2785476	Tielt	VLG	BE	50.99931	3.32707
2785612	Tessenderlo	VLG	BE	51.06513	5.08856
2785622	Tervuren	VLG	BE	50.82372	4.51418
2785778	Temse	VLG	BE	51.12794	4.21372
2786087	Stekene	VLG	BE	51.2099	4.03651
2786229	Stabroek	VLG	BE	51.33189	4.37127
2786344	Soumagne	WAL	BE	50.61385	5.74679
2786420	Soignies	WAL	BE	50.57904	4.07129
2786545	Sint-Truiden	VLG	BE	50.81679	5.18647
2786559	Sint-Pieters-Leeuw	VLG	BE	50.77926	4.24355
2786578	Sint-Niklaas	VLG	BE	51.16509	4.1437
2786634	Sint-Kruis	VLG	BE	51.21399	3.24949
2786641	Sint-Katelijne-Waver	VLG	BE	51.06691	4.53469
2786694	Sint-Gillis-Waas	VLG	BE	51.21914	4.12374
2786700	Sint-Genesius-Rode	VLG	BE	50.74645	4.35754
2786824	Seraing	WAL	BE	50.58362	5.50115
2786963	Schoten	VLG	BE	51.25251	4.50268
2787048	Schilde	VLG	BE	51.24107	4.58336
2787356	Saint-Nicolas	WAL	BE	50.62837	5.53243
2787416	Saint-Ghislain	WAL	BE	50.44816	3.81886
2787662	Rotselaar	VLG	BE	50.95302	4.71665
2787769	Ronse	VLG	BE	50.74574	3.6005
2787889	Roeselare	VLG	BE	50.94653	3.12269
2787989	Rixensart	WAL	BE	50.71229	4.52529
2788088	Riemst	VLG	BE	50.80995	5.60131
2788348	Ranst	VLG	BE	51.18983	4.56533
2788499	Quaregnon	WAL	BE	50.44067	3.8653
2788506	Puurs	VLG	BE	51.07409	4.28844
2788521	Putte	VLG	BE	51.05337	4.63263
2788726	Poperinge	VLG	BE	50.85386	2.72659
2788765	Pont-à-Celles	WAL	BE	50.50518	4.36887
2789162	Péruwelz	WAL	BE	50.50819	3.59373
2789232	Peer	VLG	BE	51.1303	5.45952
2789413	Overijse	VLG	BE	50.77436	4.53461
2789471	Oupeye	WAL	BE	50.71184	5.6468
2789529	Oudenaarde	VLG	BE	50.85168	3.60891
2789751	Oostkamp	VLG	BE	51.15432	3.23128
2789786	Ostend	VLG	BE	51.21551	2.927
2790101	Nivelles	WAL	BE	50.59833	4.32848
2790114	Ninove	VLG	BE	50.82776	4.02657
2790135	Nijlen	VLG	BE	51.16096	4.67008
2790357	Neerpelt	VLG	BE	51.22807	5.4427
2790471	Namur	WAL	BE	50.4669	4.86746
2790595	Mouscron	WAL	BE	50.74497	3.20639
2790676	Mortsel	VLG	BE	51.16697	4.45127
2790697	Morlanwelz-Mariemont	WAL	BE	50.45502	4.24519
2790869	Mons	WAL	BE	50.45413	3.95229
2791067	Mol	VLG	BE	51.19188	5.11662
2791194	Middelkerke	VLG	BE	51.18532	2.82077
2791315	Merelbeke	VLG	BE	50.99447	3.74621
2791343	Menen	VLG	BE	50.79722	3.12245
2791424	Meise	VLG	BE	50.93934	4.32655
2791537	Mechelen	VLG	BE	51.02574	4.47762
2791744	Marche-en-Famenne	WAL	BE	50.22678	5.34416
2791814	Manage	WAL	BE	50.50312	4.23589
2791857	Maldegem	VLG	BE	51.20737	3.44511
2791961	Maasmechelen	VLG	BE	50.96545	5.69452
2791964	Maaseik	VLG	BE	51.09802	5.78379
2792073	Louvain-la-Neuve	WAL	BE	50.66829	4.61443
2792165	Londerzeel	VLG	BE	51.00468	4.30304
2792179	Lommel	VLG	BE	51.23074	5.31349
2792196	Lokeren	VLG	BE	51.10364	3.99339
2792235	Lochristi	VLG	BE	51.09644	3.83194
2792360	Lille	VLG	BE	51.24197	4.82313
2792397	Lier	VLG	BE	51.13128	4.57041
2792413	Liège	WAL	BE	50.63373	5.56749
2792482	Leuven	VLG	BE	50.87959	4.70093
2792567	Lessines	WAL	BE	50.71104	3.83579
2793077	Lede	VLG	BE	50.96626	3.98594
2793144	Lebbeke	VLG	BE	51.00464	4.13457
2793446	Lanaken	VLG	BE	50.89318	5.6468
2793508	La Louvière	WAL	BE	50.48657	4.18785
2794055	Kortrijk	VLG	BE	50.82803	3.26487
2794070	Kortenberg	VLG	BE	50.88982	4.54353
2794117	Kontich	VLG	BE	51.13213	4.44706
2794166	Koksijde	VLG	BE	51.11642	2.63772
2794663	Kasterlee	VLG	BE	51.24118	4.96651
2794730	Kapellen	VLG	BE	51.31377	4.43539
2794788	Kalmthout	VLG	BE	51.38442	4.47556
2795009	Izegem	VLG	BE	50.91396	3.21378
2795100	Ieper	VLG	BE	50.85114	2.88569
2795113	Huy	WAL	BE	50.51894	5.23284
2795261	Houthalen	VLG	BE	51.03427	5.37429
2795398	Hoogstraten	VLG	BE	51.40029	4.76034
2795730	Hoboken	VLG	BE	51.17611	4.34844
2795800	Heusden	VLG	BE	51.03664	5.28013
2795908	Herzele	VLG	BE	50.88681	3.89014
2795912	Herve	WAL	BE	50.64083	5.79353
2795930	Herstal	WAL	BE	50.66415	5.62346
2796009	Herentals	VLG	BE	51.17655	4.83248
2796012	Herent	VLG	BE	50.90861	4.67056
2796132	Helchteren	VLG	BE	51.05591	5.38244
2796153	Heist-op-den-Berg	VLG	BE	51.07537	4.72827
2796491	Hasselt	VLG	BE	50.93106	5.33781
2796542	Harelbeke	VLG	BE	50.85343	3.30935
2796637	Hamme	VLG	BE	51.09822	4.13705
2796696	Halle	VLG	BE	50.73385	4.23454
2796833	Haaltert	VLG	BE	50.90634	4.00093
2797114	Grimbergen	VLG	BE	50.93409	4.37213
2797638	Geraardsbergen	VLG	BE	50.77343	3.88223
2797656	Gent	VLG	BE	51.05	3.71667
2797670	Genk	VLG	BE	50.965	5.50082
2797713	Gembloux	WAL	BE	50.56149	4.69889
2797779	Geel	VLG	BE	51.16557	4.98917
2798023	Frameries	WAL	BE	50.40578	3.89603
2798297	Fleurus	WAL	BE	50.48351	4.55006
2798301	Fléron	WAL	BE	50.61516	5.68062
2798307	Flémalle-Haute	WAL	BE	50.59994	5.44471
2798551	Evergem	VLG	BE	51.10529	3.704
2798573	Eupen	WAL	BE	50.6279	6.03647
2798615	Essen	VLG	BE	51.46791	4.46901
2798987	Eeklo	VLG	BE	51.18703	3.55654
2799007	Edegem	VLG	BE	51.15662	4.44504
2799090	Duffel	VLG	BE	51.09554	4.50903
2799226	Dour	WAL	BE	50.39583	3.77792
2799365	Dilbeek	VLG	BE	50.84799	4.25972
2799369	Diksmuide	VLG	BE	51.03248	2.86384
2799397	Diest	VLG	BE	50.98923	5.05062
2799412	Diepenbeek	VLG	BE	50.90769	5.41875
2799496	Destelbergen	VLG	BE	51.05952	3.79899
2799645	Dendermonde	VLG	BE	51.02869	4.10106
2799647	Denderleeuw	VLG	BE	50.88506	4.07601
2799746	Deinze	VLG	BE	50.98175	3.53096
2800063	Courcelles	WAL	BE	50.46379	4.3747
2800220	Colfontaine	WAL	BE	50.4141	3.85569
2800438	Chaudfontaine	WAL	BE	50.5828	5.6341
2800448	Châtelet	WAL	BE	50.40338	4.52826
2800461	Chasse Royale	WAL	BE	50.42842	3.95001
2800481	Charleroi	WAL	BE	50.41136	4.44448
2800866	Brussels	BRU	BE	50.85045	4.34878
2800931	Brugge	VLG	BE	51.20892	3.22424
2801106	Brecht	VLG	BE	51.35024	4.63829
2801117	Brasschaat	VLG	BE	51.2912	4.49182
2801150	Braine-le-Comte	WAL	BE	50.60979	4.14658
2801154	Braine-l'Alleud	WAL	BE	50.68363	4.36784
2801226	Boussu	WAL	BE	50.43417	3.7944
2801447	Bornem	VLG	BE	51.09716	4.24364
2801494	Boom	VLG	BE	51.09242	4.3717
2801858	Blankenberge	VLG	BE	51.31306	3.13227
2801922	Binche	WAL	BE	50.41155	4.16469
2801924	Bilzen	VLG	BE	50.87325	5.5184
2802031	Beveren	VLG	BE	51.21187	4.25633
2802170	Beringen	VLG	BE	51.04954	5.22606
2802433	Beersel	VLG	BE	50.76589	4.3002
2802435	Beerse	VLG	BE	51.31927	4.85304
2802743	Balen	VLG	BE	51.16837	5.17027
2803010	Ath	WAL	BE	50.62937	3.77801
2803033	Asse	VLG	BE	50.91011	4.19836
2803073	Arlon	WAL	BE	49.68333	5.81667
2803138	Antwerpen	VLG	BE	51.21989	4.40346
2803160	Ans	WAL	BE	50.6623	5.52029
2803204	Andenne	WAL	BE	50.48941	5.09513
2803429	Aarschot	VLG	BE	50.98715	4.83695
2803443	Aalter	VLG	BE	51.09017	3.44693
2803448	Aalst	VLG	BE	50.93604	4.0355
2353197	Zorgo	11	BF	12.24922	-0.61527
2353688	Yako	10	BF	12.9591	-2.26075
2354176	Tougan	1	BF	13.0725	-3.0694
2354349	Titao	10	BF	13.76667	-2.06667
2354675	Tenkodogo	4	BF	11.78	-0.36972
2356228	Réo	6	BF	12.31963	-2.47094
2356454	Pô	7	BF	11.16972	-1.145
2357043	Ouahigouya	10	BF	13.58278	-2.42158
2357048	Ouagadougou	3	BF	12.36566	-1.53388
2357163	Nouna	1	BF	12.72939	-3.86305
2358100	Manga	7	BF	11.66361	-1.07306
2358382	Léo	6	BF	11.10033	-2.10654
2358738	Koupéla	4	BF	12.17864	-0.35103
2358946	Koudougou	6	BF	12.25263	-2.36272
2359142	Kongoussi	5	BF	13.32583	-1.53472
2359227	Kombissiri	7	BF	12.06095	-1.33355
2359317	Kokologo	6	BF	12.18972	-1.88556
2359608	Kaya	5	BF	13.09167	-1.08444
2360073	Houndé	9	BF	11.5	-3.51667
2360238	Gourcy	10	BF	13.20776	-2.35893
2360615	Garango	4	BF	11.8	-0.55056
2360886	Fada N'gourma	8	BF	12.06157	0.35843
2361082	Dori	12	BF	14.0354	-0.0345
2361177	Djibo	12	BF	14.0994	-1.62554
2361373	Diapaga	8	BF	12.07305	1.78838
2361477	Dédougou	1	BF	12.46338	-3.46075
2361845	Boussé	11	BF	12.6576	-1.89288
2361946	Boulsa	5	BF	12.66664	-0.57469
2362344	Bobo-Dioulasso	9	BF	11.17715	-4.2979
2362909	Banfora	2	BF	10.63333	-4.76667
2577162	Gaoua	13	BF	10.29917	-3.25083
2577164	Orodara	9	BF	10.94917	-4.93417
725578	Yambol	65	BG	42.48333	26.5
725712	Vratsa	64	BG	43.21	23.5625
725905	Vidin	63	BG	43.99	22.8725
725988	Velingrad	48	BG	42.02754	23.99155
725993	Veliko Tŭrnovo	62	BG	43.08124	25.62904
726050	Varna	61	BG	43.21667	27.91667
726174	Targovishte	60	BG	43.2512	26.57215
726320	Troyan	46	BG	42.89427	24.71589
726418	Dobrich	40	BG	43.56667	27.83333
726534	Svishtov	62	BG	43.61959	25.35044
726546	Svilengrad	43	BG	41.76667	26.2
726848	Stara Zagora	59	BG	42.43278	25.64194
726872	Dupnitsa	45	BG	42.26667	23.11667
727011	Sofia	42	BG	42.69751	23.32415
727030	Smolyan	57	BG	41.58528	24.69194
727079	Sliven	56	BG	42.68583	26.32917
727221	Silistra	55	BG	44.11667	27.26667
727233	Shumen	54	BG	43.27064	26.92286
727337	Sevlievo	41	BG	43.02583	25.11361
727447	Sandanski	38	BG	41.56667	23.28333
727462	Samokov	58	BG	42.337	23.5528
727523	Ruse	53	BG	43.85639	25.97083
727696	Razgrad	52	BG	43.53333	26.51667
727791	Rakovski	51	BG	42.3	24.96667
728075	Popovo	60	BG	43.35	26.23333
728193	Plovdiv	51	BG	42.15	24.75
728203	Pleven	50	BG	43.41667	24.61667
728288	Petrich	38	BG	41.39846	23.20702
728317	Peshtera	48	BG	42.03333	24.3
728330	Pernik	49	BG	42.6	23.03333
728378	Pazardzhik	48	BG	42.2	24.33333
728448	Panagyurishte	48	BG	42.5	24.18333
728742	Nova Zagora	56	BG	42.48333	26.01667
729114	Montana	47	BG	43.4125	23.225
729559	Lovech	46	BG	43.13333	24.71667
729581	Lom	47	BG	43.81389	23.23611
729730	Kyustendil	45	BG	42.28389	22.69111
729794	Kardzhali	44	BG	41.65	25.36667
730435	Haskovo	43	BG	41.93415	25.55557
730442	Harmanli	43	BG	41.93333	25.9
730496	Kazanlak	59	BG	42.61667	25.4
730559	Karnobat	39	BG	42.65	26.98333
730565	Karlovo	51	BG	42.63333	24.8
731108	Gotse Delchev	38	BG	41.56667	23.73333
731233	Gorna Oryahovitsa	62	BG	43.12778	25.70167
731549	Gabrovo	41	BG	42.87472	25.33417
651943	Kokkola	16	FI	63.83847	23.13066
732263	Dimitrovgrad	43	BG	42.05	25.6
732452	Chirpan	59	BG	42.2	25.33333
732491	Cherven Bryag	50	BG	43.26667	24.1
732770	Burgas	39	BG	42.50606	27.46781
733014	Botevgrad	58	BG	42.9	23.78333
733191	Blagoevgrad	38	BG	42.01667	23.1
733264	Berkovitsa	47	BG	43.23611	23.12583
733579	Aytos	39	BG	42.7	27.25
733618	Asenovgrad	51	BG	42.01667	24.86667
290104	Sitrah	16	BH	26.15472	50.62056
290187	Madīnat ‘Īsá	17	BH	26.17361	50.54778
290215	Jidd Ḩafş	16	BH	26.21861	50.54778
290247	Madīnat Ḩamad	18	BH	26.11528	50.50694
290269	Dār Kulayb	17	BH	26.06861	50.50389
290332	Al Muharraq	15	BH	26.25722	50.61194
290340	Manama	16	BH	26.22787	50.58565
385038	Ar Rifā‘	17	BH	26.13	50.555
422232	Makamba	17	BI	-4.1348	29.804
423328	Bururi	10	BI	-3.94877	29.62438
425378	Bujumbura	24	BI	-3.3822	29.3644
425551	Muramvya	22	BI	-3.2682	29.6079
426272	Gitega	13	BI	-3.4264	29.9308
426700	Ruyigi	21	BI	-3.47639	30.24861
430569	Ngozi	19	BI	-2.9075	29.8306
430952	Kayanza	15	BI	-2.9221	29.6293
431748	Muyinga	18	BI	-2.8451	30.3414
433635	Rutana	20	BI	-3.9279	29.992
2391377	Tchaourou	10	BJ	8.88649	2.59753
2391455	Tanguiéta	8	BJ	10.62118	1.26651
2391893	Savé	11	BJ	8.03424	2.4866
2391895	Savalou	11	BJ	7.92807	1.97558
2392009	Sakété	17	BJ	6.73618	2.65866
2392087	Porto-Novo	16	BJ	6.49646	2.60359
2392108	Pobé	17	BJ	6.98008	2.6649
2392204	Parakou	10	BJ	9.33716	2.63031
2392308	Ouidah	9	BJ	6.36307	2.08506
2392505	Nikki	10	BJ	9.94009	3.21075
2392601	Natitingou	8	BJ	10.30416	1.37962
2392837	Malanville	8	BJ	11.86819	3.38327
2392897	Lokossa	15	BJ	6.63869	1.71674
2393551	Kétou	17	BJ	7.36332	2.59978
2393693	Kandi	7	BJ	11.13417	2.93861
2394545	Dogbo	12	BJ	6.81667	1.78333
2394560	Djougou	13	BJ	9.70853	1.66598
2394711	Dassa-Zoumé	11	BJ	7.75	2.18333
2394814	Cové	18	BJ	7.22097	2.34017
2394819	Cotonou	14	BJ	6.36536	2.41833
2394824	Comé	15	BJ	6.40764	1.88198
2395049	Bohicon	18	BJ	7.17826	2.0667
2395182	Bembèrèkè	10	BJ	10.22827	2.66335
2395261	Bassila	13	BJ	9.00814	1.6654
2395317	Banikoara	7	BJ	11.29845	2.43856
2395568	Aplahoué	12	BJ	6.93333	1.68333
2395635	Allada	9	BJ	6.66547	2.15138
2395914	Abomey-Calavi	9	BJ	6.44852	2.35566
2395915	Abomey	18	BJ	7.18286	1.99119
3579132	Gustavia	0	BL	17.89618	-62.84978
3573197	Hamilton	3	BM	32.2949	-64.78303
1820071	Tutong	4	BN	4.8	114.65
1820187	Seria	1	BN	4.60637	114.32476
1820491	Kuala Belait	1	BN	4.58361	114.2312
1820906	Bandar Seri Begawan	2	BN	4.94029	114.94806
3901178	Yacuiba	9	BO	-22.01643	-63.67753
3901301	Warnes	8	BO	-17.5163	-63.16778
3901501	Villazón	7	BO	-22.08659	-65.59422
3901504	Villa Yapacaní	8	BO	-17.4	-63.83333
3901547	Villamontes	9	BO	-21.26235	-63.46903
3902202	Tupiza	7	BO	-21.44345	-65.71875
3902377	Trinidad	3	BO	-14.83333	-64.9
3903320	Tarija	9	BO	-21.53549	-64.72956
3903987	Sucre	1	BO	-19.03332	-65.26274
3904666	Santiago del Torno	8	BO	-17.98674	-63.38118
3904906	Santa Cruz de la Sierra	8	BO	-17.78629	-63.18117
3905658	San Ignacio de Velasco	8	BO	-16.36667	-60.95
3905792	San Borja	3	BO	-14.81667	-66.85
3906466	Riberalta	3	BO	-11.00654	-66.06312
3907080	Punata	2	BO	-17.54234	-65.83472
3907584	Potosí	7	BO	-19.58361	-65.75306
3909234	Oruro	5	BO	-17.98333	-67.15
3910027	Montero	8	BO	-17.33866	-63.2505
3910291	Mizque	2	BO	-17.94101	-65.34016
3911409	Llallagua	7	BO	-18.42426	-66.58388
3911925	La Paz	4	BO	-16.5	-68.15
3914839	Huanuni	5	BO	-18.289	-66.83583
3915350	Guayaramerín	3	BO	-10.83676	-65.36136
3918937	Cotoca	8	BO	-17.81667	-63.05
3919968	Cochabamba	2	BO	-17.3895	-66.1568
3919998	Cobija	6	BO	-11.02671	-68.76918
3922414	Camiri	8	BO	-20.03849	-63.51833
3513563	Kralendijk	BO	BQ	12.15	-68.26667
3384986	Vitória do Mearim	13	BR	-3.46222	-44.87056
3384987	Vitória de Santo Antão	30	BR	-8.11806	-35.29139
3385022	Viseu	16	BR	-1.19667	-46.14
3385077	Conde	17	BR	-7.25972	-34.9075
3385088	Vigia	16	BR	-0.85833	-48.14167
3385106	Viçosa do Ceará	6	BR	-3.56222	-41.09222
3385109	Viçosa	2	BR	-9.37139	-36.24083
3385122	Viana	13	BR	-3.22028	-45.00361
3385467	Várzea Alegre	6	BR	-5.35	-40.38333
3385504	Varjota	6	BR	-4.19444	-40.47667
3385538	Vargem Grande	13	BR	-3.54306	-43.91583
3385592	Valença do Piauí	20	BR	-6.4075	-41.74556
3385742	União dos Palmares	2	BR	-9.16278	-36.03194
3385745	União	20	BR	-4.58583	-42.86417
3385922	Tuntum	13	BR	-5.25806	-44.64889
3385935	Tucuruí	16	BR	-3.76585	-49.67923
3385980	Tucumã	16	BR	-0.18333	-50.05
3386042	Trindade	30	BR	-7.76194	-40.26778
3386177	Trairi	6	BR	-3.27778	-39.26889
3386264	Toritama	30	BR	-8.00667	-36.05667
3386279	Tomé Açu	16	BR	-2.41889	-48.15222
3386361	Timon	13	BR	-5.09417	-42.83667
3386372	Timbiras	13	BR	-4.25528	-43.94056
3386396	Timbaúba	30	BR	-7.50528	-35.31833
3386449	Tianguá	6	BR	-3.73222	-40.99167
3386496	Teresina	20	BR	-5.08917	-42.80194
3386567	São João dos Inhamuns	6	BR	-6	-40.28333
3386931	Tamandaré	30	BR	-8.75632	-35.09995
3387082	Tabira	30	BR	-7.59083	-37.53944
3387115	Surubim	30	BR	-7.83306	-35.75472
3387202	Sousa	17	BR	-6.75917	-38.22806
3387204	Soure	16	BR	-0.71667	-48.52333
3387266	Solânea	17	BR	-6.755	-35.54
3387296	Sobral	6	BR	-3.68611	-40.34972
3387604	Sirinhaém	30	BR	-8.59083	-35.11611
3387663	Sertânia	30	BR	-8.07361	-37.26444
3387786	Serra Talhada	30	BR	-7.99194	-38.29833
3387926	Senador Pompeu	6	BR	-5.58806	-39.37167
3387987	Satuba	2	BR	-9.56333	-35.82444
3388145	São Raimundo Nonato	20	BR	-9.01528	-42.69944
3388269	São Miguel dos Campos	2	BR	-9.78111	-36.09361
3388270	São Miguel do Guamá	16	BR	-1.62667	-47.48333
3388318	São Mateus do Maranhão	13	BR	-4.04167	-44.475
3388341	São Luís do Quitunde	2	BR	-9.31833	-35.56111
3388368	São Luís	13	BR	-2.52972	-44.30278
3388376	São Lourenço da Mata	30	BR	-8.00222	-35.01833
3388435	São José do Egito	30	BR	-7.47889	-37.27444
3388443	São José de Mipibu	22	BR	-6.07472	-35.23778
3388615	São João dos Patos	13	BR	-6.495	-43.70222
3388714	São Gonçalo do Amarante	6	BR	-3.60722	-38.96833
3388847	São Félix do Xingu	16	BR	-6.64472	-51.995
3388868	São Domingos do Maranhão	13	BR	-5.57583	-44.38528
3388991	São Bento	17	BR	-6.28333	-37.75
3389006	São Bento	13	BR	-2.69583	-44.82139
3389321	Santa Rita	17	BR	-7.11389	-34.97806
3389353	Santarém	16	BR	-2.44306	-54.70833
3389358	Santa Quitéria do Maranhão	13	BR	-3.51556	-42.54667
3389361	Santa Quitéria	6	BR	-4.33194	-40.15667
3389384	Santana do Ipanema	2	BR	-9.37833	-37.24528
3389557	Santa Luzia	13	BR	-7.64265	-47.21738
3389609	Santa Inês	13	BR	-3.66667	-45.38
3389622	Santa Helena	13	BR	-2.23111	-45.3
3389652	Santa Cruz do Capibaribe	30	BR	-7.9575	-36.20472
3389673	Santa Cruz	22	BR	-6.22944	-36.02278
3389860	Salgueiro	30	BR	-8.07417	-39.11917
3390160	Russas	6	BR	-4.94028	-37.97583
3390288	Rio Largo	2	BR	-9.47833	-35.85333
3390295	Rio Formoso	30	BR	-8.66877	-35.16277
3390326	Ribeirão	30	BR	-8.51444	-35.37778
3390760	Recife	30	BR	-8.05389	-34.88111
3390901	Quixeramobim	6	BR	-5.19917	-39.29278
3390907	Quixadá	6	BR	-4.97139	-39.01528
3391220	Presidente Dutra	13	BR	-5.29	-44.49
3391397	Porto Calvo	2	BR	-9.045	-35.39833
3391412	Portel	16	BR	-1.93556	-50.82111
3391556	Pombos	30	BR	-8.14139	-35.39583
3391571	Pombal	17	BR	-6.77028	-37.80167
3391908	Piripiri	20	BR	-4.27333	-41.77694
3391991	Piracuruca	20	BR	-3.92806	-41.70917
3392054	Pinheiro	13	BR	-2.52139	-45.0825
3392088	Pindaré Mirim	13	BR	-3.60833	-45.34333
3392126	Pilar	2	BR	-9.59722	-35.95667
3392167	Picos	20	BR	-7.07694	-41.46694
3392242	Petrolina	30	BR	-9.39861	-40.50083
3392243	Jatobá	30	BR	-9.18306	-38.26889
3392251	Pesqueira	30	BR	-8.35778	-36.69639
3392345	Pentecoste	6	BR	-3.79278	-39.27028
3392368	Penalva	13	BR	-3.29417	-45.17361
3392431	Pedro II	20	BR	-4.42472	-41.45861
3392629	Pedra Branca	6	BR	-5.45417	-39.71722
3392734	Paulo Afonso	5	BR	-9.40611	-38.21472
3392740	Paulista	30	BR	-7.94083	-34.87306
3392887	Patos	17	BR	-7.02444	-37.28
3392998	Parnamirim	22	BR	-5.91556	-35.26278
3393001	Parnaíba	20	BR	-2.90472	-41.77667
3393008	Parintins	4	BR	-2.62833	-56.73583
3393017	Parelhas	22	BR	-6.68778	-36.6575
3393091	Paraipaba	6	BR	-3.43944	-39.14833
3393106	Paragominas	16	BR	-2.96667	-47.48333
3393115	Paracuru	6	BR	-3.41	-39.03056
3393264	Palmares	30	BR	-8.68333	-35.59167
3393400	Pacatuba	6	BR	-3.98417	-38.62028
3393409	Pacajus	6	BR	-4.1725	-38.46056
3393452	Ouricuri	30	BR	-7.8825	-40.08167
3393465	Orós	6	BR	-6.24444	-38.91361
3393471	Oriximiná	16	BR	-1.76556	-55.86611
3393536	Olinda	30	BR	-8.00889	-34.85528
3393764	Oeiras	20	BR	-7.02528	-42.13111
3393768	Ábidos	16	BR	-1.9175	-55.51806
3393832	Nova Russas	6	BR	-4.70667	-40.56306
3393876	Nova Cruz	22	BR	-6.47806	-35.43389
3393972	Nazaré da Mata	30	BR	-7.74167	-35.22778
3394023	Natal	22	BR	-5.795	-35.20944
3394116	Murici	2	BR	-9.30667	-35.94333
3394453	Moreno	30	BR	-8.11861	-35.09222
3394500	Morada Nova	6	BR	-5.10667	-38.3725
3394549	Monteiro	17	BR	-7.88944	-37.12
3394605	Monte Alegre	16	BR	-2.00082	-54.08102
3394649	Mombaça	6	BR	-5.74306	-39.6275
3394661	Moju	16	BR	-1.88389	-48.76889
3394682	Mossoró	22	BR	-5.1875	-37.34417
3394745	Mocajuba	16	BR	-2.58417	-49.50722
3395062	Maués	4	BR	-3.38361	-57.71861
3395077	Matriz de Camaragibe	2	BR	-9.15167	-35.53333
3395380	Mari	17	BR	-7.06	-35.31944
3395395	Marechal Deodoro	2	BR	-9.71028	-35.895
3395458	Maragogi	2	BR	-9.01222	-35.2225
3395473	Maracanaú	6	BR	-3.87667	-38.62556
3395503	Marabá	16	BR	-5.38146	-49.13232
3395717	Mamanguape	17	BR	-6.83861	-35.12611
3395981	Maceió	2	BR	-9.66583	-35.73528
3395998	Macau	22	BR	-5.115	-36.63444
3396016	Macapá	3	BR	0.03889	-51.06639
3396048	Macaíba	22	BR	-5.85833	-35.35389
3396266	Limoeiro do Norte	6	BR	-5.14556	-38.09806
3396277	Limoeiro	30	BR	-7.87472	-35.45028
3396364	Lavras da Mangabeira	6	BR	-6.75333	-38.96444
3396496	Lajedo	30	BR	-8.66361	-36.32
3396601	Lago da Pedra	13	BR	-4.28674	-45.23824
3396769	Lagoa do Itaenga	30	BR	-7.93611	-35.29028
3397147	Juazeiro do Norte	6	BR	-7.21306	-39.31528
3397230	José de Freitas	20	BR	-4.75639	-42.57556
3397277	João Pessoa	17	BR	-7.115	-34.86306
3397315	João Câmara	22	BR	-5.5375	-35.81972
3397665	Jaguaruana	6	BR	-4.83389	-37.78111
3397675	Jaguaribe	6	BR	-5.89056	-38.62194
3397838	Jaboatão	30	BR	-8.18028	-35.00139
3397851	Itupiranga	16	BR	-5.13472	-49.32667
3397893	Itacoatiara	4	BR	-3.14306	-58.44417
3397898	Itaporanga	17	BR	-7.30444	-38.15028
3397904	Itapissuma	30	BR	-7.77639	-34.89222
3397909	Itapipoca	6	BR	-3.49444	-39.57861
3397936	Itapecuru Mirim	13	BR	-3.3925	-44.35861
3397941	Itapagé	6	BR	-3.68667	-39.58611
3397967	Itaituba	16	BR	-4.27611	-55.98361
3397969	Itaitinga	6	BR	-3.96944	-38.52806
3398003	Itabaiana	17	BR	-7.32861	-35.3325
3398076	Ipueiras	6	BR	-7.03333	-40.45
3398105	Ipubi	30	BR	-7.65194	-40.14889
3398112	Ipu	6	BR	-4.32222	-40.71083
3398115	Ipojuca	30	BR	-8.39889	-35.06389
3398269	Imperatriz	13	BR	-5.52639	-47.49167
3398331	Iguatu	6	BR	-6.35944	-39.29861
3398343	Igarapé Miri	16	BR	-1.975	-48.95972
3398350	Igarapé Açu	16	BR	-1.12889	-47.62
3398352	Igarassu	30	BR	-7.83417	-34.90639
3398379	Icó	6	BR	-6.40111	-38.86222
3398450	Horizonte	6	BR	-4.1	-38.48333
3398569	Guaraciaba do Norte	6	BR	-4.16694	-40.7475
3398570	Guarabira	17	BR	-6.85472	-35.49
3398614	Guaiúba	6	BR	-4.03972	-38.63722
3398691	Gravatá	30	BR	-8.20111	-35.56472
3398706	Granja	6	BR	-3.12028	-40.82611
3398856	Grajaú	13	BR	-5.81944	-46.13861
3398904	Goiana	30	BR	-7.56056	-35.0025
3398920	Glória do Goitá	30	BR	-8.00167	-35.29278
3399058	Garanhuns	30	BR	-8.88202	-36.50216
3399132	Gameleira	30	BR	-8.58444	-35.38667
3399415	Fortaleza	6	BR	-3.71722	-38.54306
3399506	Floriano	20	BR	-6.76694	-43.0225
3399518	Floresta	30	BR	-8.60111	-38.56861
3400558	Eusébio	6	BR	-3.89	-38.45056
3400567	Extremoz	22	BR	-5.70556	-35.30722
3400617	Estreito	13	BR	-5.78333	-43.25
3400740	Esperantina	20	BR	-3.90167	-42.23361
3400752	Esperança	17	BR	-7.03306	-35.85722
3400804	Escada	30	BR	-8.35917	-35.22361
3400969	Dom Pedro	13	BR	-5.03749	-44.43857
3401106	Demerval Lobão	20	BR	-5.35833	-42.67639
3401109	Delmiro Gouveia	2	BR	-9.38861	-37.99917
3401138	Custódia	30	BR	-8.0875	-37.64306
3401148	Cururupu	13	BR	-1.82833	-44.86833
3401283	Currais Novos	22	BR	-6.26083	-36.51778
3401340	Cupira	30	BR	-8.61667	-35.95
3401545	Crato	6	BR	-7.23417	-39.40944
3401548	Crateús	6	BR	-5.17833	-40.6775
3401703	Coroatá	13	BR	-4.13	-44.12417
3401830	Condado	30	BR	-7.58583	-35.10583
3401845	Conceição do Araguaia	16	BR	-8.26441	-49.26982
3401963	Colinas	13	BR	-6.02583	-44.24917
3401992	Coelho Neto	13	BR	-4.25667	-43.01278
3402000	Codó	13	BR	-4.45528	-43.88556
3402229	Chapadinha	13	BR	-3.74167	-43.36028
3402271	Chã Grande	30	BR	-8.23833	-35.46167
3402360	Ceará Mirim	22	BR	-5.63444	-35.42556
3402383	Caxias	13	BR	-4.85889	-43.35611
3402429	Caucaia	6	BR	-3.73611	-38.65306
3402465	Catolé do Rocha	17	BR	-6.34389	-37.74667
3402528	Catende	30	BR	-8.66667	-35.71667
3402591	Castanhal	16	BR	-1.29389	-47.92639
3402613	Cascavel	6	BR	-4.13306	-38.24194
3402655	Caruaru	30	BR	-8.28333	-35.97611
3402721	Carpina	30	BR	-7.85083	-35.25472
3402724	Carolina	13	BR	-7.33561	-47.46218
3403127	Capitão Poço	16	BR	-1.74639	-47.05944
3403208	Capanema	16	BR	-1.19583	-47.18083
3403353	Canindé	6	BR	-4.35889	-39.31167
3403362	Canguaretama	22	BR	-6.38	-35.12889
3403534	Campos Sales	6	BR	-7.07444	-40.37611
3403566	Campo Maior	20	BR	-4.82778	-42.16861
3403611	Campo Alegre	2	BR	-9.78194	-36.35083
3403642	Campina Grande	17	BR	-7.23056	-35.88111
3403687	Camocim	6	BR	-2.90222	-40.84111
3403697	Cametá	16	BR	-2.24444	-49.49583
3403941	Cajueiro	2	BR	-9.71667	-36.45
3404020	Cajazeiras	17	BR	-6.89028	-38.55528
3404117	Caicó	22	BR	-6.45833	-37.09778
3404513	Cabrobó	30	BR	-8.51417	-39.31
3404545	Cabo	30	BR	-8.28333	-35.03333
3404558	Cabedelo	17	BR	-6.98111	-34.83389
3404722	Buriti Bravo	13	BR	-5.83722	-43.83361
3404766	Buíque	30	BR	-8.62306	-37.15583
3404817	Breves	16	BR	-1.68222	-50.48028
3404833	Brejo Santo	6	BR	-7.49333	-38.98722
3404862	Brejo da Madre de Deus	30	BR	-8.14583	-36.37111
3405006	Bragança	16	BR	-1.05361	-46.76556
3405380	Bom Conselho	30	BR	-9.16972	-36.67972
3405616	Boa Viagem	6	BR	-5.1275	-39.73222
3405738	Bezerros	30	BR	-8.23333	-35.79694
3405792	Benevides	16	BR	-1.36139	-48.24472
3405812	Belo Jardim	30	BR	-8.33556	-36.42417
3405863	Belém	17	BR	-6.69167	-35.53333
3405870	Belém	16	BR	-1.45583	-48.50444
3405924	Beberibe	6	BR	-4.17972	-38.13056
3405940	Bayeux	17	BR	-7.125	-34.93222
3405954	Baturité	6	BR	-4.32861	-38.88472
3406160	Barreiros	30	BR	-8.81833	-35.18639
3406196	Barreirinhas	13	BR	-2.75556	-42.82591
3406263	Barras	20	BR	-4.24444	-42.29444
3406318	Barra do Corda	13	BR	-5.50308	-45.23693
3406429	Barcarena	16	BR	-1.50583	-48.62583
3406442	Barbalha	6	BR	-7.31111	-39.30417
3406545	Balsas	13	BR	-7.5325	-46.03556
3406910	Bacabal	13	BR	-4.29167	-44.79167
3406961	Augusto Corrêa	16	BR	-1.02167	-46.635
3406996	Atalaia	2	BR	-9.50194	-36.02278
3407194	Areia Branca	22	BR	-4.95611	-37.13694
3407216	Arcoverde	30	BR	-8.41889	-37.05389
3407243	Araripina	30	BR	-7.57611	-40.49833
3407258	Arari	13	BR	-3.45361	-44.78
3407327	Arapiraca	2	BR	-9.7525	-36.66111
3407357	Araguaína	31	BR	-7.19111	-48.20722
3407378	Aracati	6	BR	-4.56167	-37.76972
3407407	Aquiraz	6	BR	-3.90139	-38.39111
3407440	Apodi	22	BR	-5.66417	-37.79889
3407669	Ananindeua	16	BR	-1.36556	-48.37222
3407758	Amaraji	30	BR	-8.38306	-35.4525
3407797	Altos	20	BR	-5.03806	-42.46
3407882	Altamira	16	BR	-3.20333	-52.20639
3407903	Almeirim	16	BR	-1.52333	-52.58167
3407980	Alenquer	16	BR	-1.94167	-54.73833
3408100	Alagoa Grande	17	BR	-7.15833	-35.63
3408166	Águas Belas	30	BR	-9.11139	-37.12306
3408175	Água Preta	30	BR	-8.7075	-35.53056
3408274	Afogados da Ingazeira	30	BR	-7.75083	-37.63917
3408337	Açu	22	BR	-5.57667	-36.90861
3408343	Acopiara	6	BR	-6.09528	-39.4525
3408368	Acaraú	6	BR	-2.88556	-40.12
3408404	Abreu e Lima	30	BR	-7.91167	-34.90278
3408424	Abaetetuba	16	BR	-1.71806	-48.8825
3444823	Xique Xique	5	BR	-10.82294	-42.72815
3444848	Xanxerê	26	BR	-26.87694	-52.40417
3444864	Votuporanga	27	BR	-20.42278	-49.97278
3444866	Votorantim	27	BR	-23.54667	-47.43778
3444876	Volta Redonda	21	BR	-22.52306	-44.10417
3444914	Vitória da Conquista	5	BR	-14.86611	-40.83944
3444924	Vitória	8	BR	-20.31944	-40.33778
3444969	Visconde do Rio Branco	15	BR	-21.01028	-42.84056
3444997	Viradouro	27	BR	-20.87306	-48.29694
3445014	Vinhedo	27	BR	-23.02972	-46.97528
3445026	Vila Velha	8	BR	-20.32972	-40.2925
3445126	Videira	26	BR	-27.00833	-51.15167
3445133	Viçosa	15	BR	-20.75389	-42.88194
3445153	Viana	8	BR	-20.39028	-40.49611
3445156	Viamão	23	BR	-30.08111	-51.02333
3445162	Vespasiano	15	BR	-19.69194	-43.92333
3445299	Veranópolis	23	BR	-28.93611	-51.54944
3445307	Vera Cruz	5	BR	-12.63333	-41.03333
3445348	Wenceslau Braz	18	BR	-23.87389	-49.80278
3445350	Venâncio Aires	23	BR	-29.60639	-52.19194
3445418	Vazante	15	BR	-17.98694	-46.90778
3445433	Vassouras	21	BR	-22.40389	-43.6625
3445446	Várzea Paulista	27	BR	-23.21139	-46.82833
3445451	Várzea Grande	14	BR	-15.64667	-56.1325
3445459	Várzea da Palma	15	BR	-17.5976	-44.73367
3445487	Varginha	15	BR	-21.55139	-45.43028
3445500	Vargem Grande do Sul	27	BR	-21.83222	-46.89361
3445575	Valparaíso	27	BR	-21.22778	-50.86833
3445578	Valinhos	27	BR	-22.97056	-46.99583
3445596	Valença	21	BR	-22.24556	-43.70028
3445597	Valença	5	BR	-13.37028	-39.07306
3445630	Vacaria	23	BR	-28.51222	-50.93389
3445679	Uruguaiana	23	BR	-29.75472	-57.08833
3445690	Uruçuca	5	BR	-14.59306	-39.28444
3445713	Uruaçu	29	BR	-14.52472	-49.14083
3445746	União da Vitória	18	BR	-26.23	-51.08639
3445764	Unaí	15	BR	-16.3575	-46.90611
3445781	Una	5	BR	-15.29333	-39.07528
3445782	Umuarama	18	BR	-23.76639	-53.325
3445831	Uberlândia	15	BR	-18.91861	-48.27722
3445839	Uberaba	15	BR	-19.74833	-47.93194
3445847	Ubatuba	27	BR	-23.43389	-45.07111
3445849	Ubatã	5	BR	-14.20906	-39.52641
3445853	Ubaitaba	5	BR	-14.3125	-39.32333
3445859	Ubá	15	BR	-21.12	-42.94278
3445939	Tupanciretã	23	BR	-29.08056	-53.83583
3445941	Tupaciguara	15	BR	-18.59222	-48.705
3445942	Tupã	27	BR	-21.93472	-50.51361
3445983	Tucano	5	BR	-10.95817	-38.79084
3445993	Tubarão	26	BR	-28.46667	-49.00694
3446038	Trindade	29	BR	-16.64944	-49.48889
3446065	Três Rios	21	BR	-22.11667	-43.20917
3446077	Três Pontas	15	BR	-21.36667	-45.5125
3446087	Três Passos	23	BR	-27.45556	-53.93194
3446098	Três Lagoas	11	BR	-20.78765	-51.70338
3446130	Três de Maio	23	BR	-27.77333	-54.24
3446137	Três Coroas	23	BR	-29.51694	-50.77778
3446138	Três Corações	15	BR	-21.69694	-45.25333
3446194	Tremembé	27	BR	-22.95833	-45.54944
3446232	Tramandaí	23	BR	-29.98472	-50.13361
3446295	Torres	23	BR	-29.33528	-49.72694
3446370	Toledo	18	BR	-24.71361	-53.74306
3446400	Tobias Barreto	28	BR	-11.18389	-37.99833
3446445	Timóteo	15	BR	-19.58106	-42.64953
3446465	Timbó	26	BR	-26.82333	-49.27167
3446500	Tijucas	26	BR	-27.24139	-48.63361
3446539	Tietê	27	BR	-23.10194	-47.71472
3446556	Teutônia	23	BR	-29.44806	-51.80639
3446606	Teresópolis	21	BR	-22.4167	-42.97822
3446621	Teófilo Otoni	15	BR	-17.8575	-41.50528
3446625	Teodoro Sampaio	27	BR	-22.5325	-52.1675
3446652	Telêmaco Borba	18	BR	-24.32389	-50.61556
3446682	Taubaté	27	BR	-23.02639	-45.55528
3446692	Tatuí	27	BR	-23.35556	-47.85694
3446752	Taquarituba	27	BR	-23.53306	-49.24444
3446753	Taquaritinga	27	BR	-21.40611	-48.50472
3446783	Taquari	23	BR	-29.79972	-51.86444
3446847	Taquara	23	BR	-29.65056	-50.78056
3446866	Tapiramutá	5	BR	-11.84722	-40.79139
3446880	Tapes	23	BR	-30.67333	-51.39583
3446974	Tanguá	21	BR	-22.73028	-42.71417
3446979	Tanabi	27	BR	-20.62639	-49.64917
3447005	Tambaú	27	BR	-21.705	-47.27444
3447059	Taiobeiras	15	BR	-15.80778	-42.23306
3447186	Taboão da Serra	27	BR	-23.62611	-46.79167
3447212	Suzano	27	BR	-23.5425	-46.31083
3447259	Sumaré	27	BR	-22.82194	-47.26694
3447399	Sorocaba	27	BR	-23.50167	-47.45806
3447423	Soledade	23	BR	-28.81833	-52.51028
3447437	Socorro	27	BR	-22.59139	-46.52889
3447473	Sobradinho	5	BR	-12.83333	-39.1
3447562	Simão Dias	28	BR	-10.73833	-37.81111
3447591	Silva Jardim	21	BR	-22.65083	-42.39167
3447597	Sidrolândia	11	BR	-20.93194	-54.96139
3447624	Sete Lagoas	15	BR	-19.46583	-44.24667
3447651	Sertãozinho	27	BR	-21.13778	-47.99028
3447690	Serrinha	5	BR	-11.66417	-39.0075
3447718	Serra Negra	27	BR	-22.61222	-46.70056
3447720	Serrana	27	BR	-21.21139	-47.59556
3447779	Serra	8	BR	-20.12861	-40.30778
3447785	Seropédica	21	BR	-22.74389	-43.7075
3447839	Senhor do Bonfim	5	BR	-10.46139	-40.18944
3447854	Senador Canedo	29	BR	-16.70806	-49.09306
3447928	Seabra	5	BR	-12.41713	-41.77049
3447929	Schroeder	26	BR	-26.4125	-49.07306
3447961	Saubara	5	BR	-12.7375	-38.76861
3447969	Sarzedo	15	BR	-20.03528	-44.14472
3447997	Sarandi	23	BR	-27.94389	-52.92306
3447998	Sarandi	18	BR	-23.44361	-51.87389
3448011	Saquarema	21	BR	-22.92	-42.51028
3448031	Sapucaia	23	BR	-29.83333	-51.15
3448063	Sapiranga	23	BR	-29.63806	-51.00694
3448136	São Vicente	27	BR	-23.96306	-46.39194
3448207	São Sepé	23	BR	-30.16056	-53.56528
3448219	São Sebastião do Passé	5	BR	-12.5125	-38.49528
3448221	São Sebastião do Paraíso	15	BR	-20.91694	-46.99139
3448227	São Sebastião do Caí	23	BR	-29.58667	-51.37556
3448257	São Sebastião	27	BR	-23.76	-45.40972
3448300	São Roque	27	BR	-23.52917	-47.13528
3448351	São Pedro da Aldeia	21	BR	-22.83917	-42.10278
3448403	São Pedro	27	BR	-22.54861	-47.91389
3448439	São Paulo	27	BR	-23.5475	-46.63611
3448453	São Miguel do Iguaçu	18	BR	-25.34806	-54.23778
3448455	São Miguel do Araguaia	29	BR	-13.275	-50.16278
3448502	São Mateus do Sul	18	BR	-25.87417	-50.38278
3448519	São Mateus	8	BR	-18.72011	-39.85891
3448533	São Marcos	23	BR	-28.97111	-51.06806
3448545	São Manuel	27	BR	-22.73111	-48.57056
3448552	São Luiz Gonzaga	23	BR	-28.40833	-54.96083
3448558	São Luís de Montes Belos	29	BR	-16.525	-50.37222
3448596	São Lourenço do Sul	23	BR	-31.36528	-51.97833
3448616	São Lourenço	15	BR	-22.11639	-45.05444
3448622	São Leopoldo	23	BR	-29.76028	-51.14722
3448632	São José dos Pinhais	18	BR	-25.5302	-49.20836
3448636	São José dos Campos	27	BR	-23.17944	-45.88694
3448639	São José do Rio Preto	27	BR	-20.81972	-49.37944
3448640	São José do Rio Pardo	27	BR	-21.59556	-46.88861
3448742	São José	26	BR	-28.21171	-49.1632
3448825	São Joaquim da Barra	27	BR	-20.58139	-47.85472
3448828	São Joaquim	26	BR	-28.29389	-49.93167
3448846	São João Nepomuceno	15	BR	-21.54	-43.01056
3448877	São João de Meriti	21	BR	-22.80389	-43.37222
3448879	São João del Rei	15	BR	-21.13556	-44.26167
3448902	São João da Boa Vista	27	BR	-21.96917	-46.79806
3448903	São João da Barra	21	BR	-21.64028	-41.05111
3449045	São Jerônimo	23	BR	-29.95917	-51.72222
3449053	São Gotardo	15	BR	-19.31111	-46.04889
3449056	São Gonçalo do Sapucaí	15	BR	-21.89222	-45.59528
3449099	São Gabriel	23	BR	-30.33639	-54.32
3449112	São Francisco do Sul	26	BR	-26.24333	-48.63806
3449116	São Francisco do Conde	5	BR	-12.6275	-38.68
3449176	São Francisco	15	BR	-15.94861	-44.86444
3449195	São Fidélis	21	BR	-21.64611	-41.74694
3449310	São Cristóvão	28	BR	-11.01472	-37.20639
3449319	São Carlos	27	BR	-22.0175	-47.89083
3449324	São Caetano do Sul	27	BR	-23.62306	-46.55111
3449340	São Borja	23	BR	-28.66056	-56.00444
3449344	São Bernardo do Campo	27	BR	-23.69389	-46.565
3449350	São Bento do Sul	26	BR	-26.25028	-49.37861
3449427	Santos Dumont	15	BR	-21.45667	-43.5525
3449433	Santos	27	BR	-23.96083	-46.33361
3449467	Santo Estêvão	5	BR	-12.43028	-39.25139
3449500	Santo Antônio do Monte	15	BR	-20.08722	-45.29361
3449516	Santo Antônio do Amparo	15	BR	-20.94639	-44.91889
3449518	Santo Antônio de Posse	27	BR	-22.60611	-46.91944
3449519	Santo Antônio de Pádua	21	BR	-21.53944	-42.18028
3449521	Santo Antônio de Jesus	5	BR	-12.96889	-39.26139
3449529	Santo Antônio da Platina	18	BR	-23.295	-50.07722
3449696	Santo Ângelo	23	BR	-28.29917	-54.26306
3449701	Santo André	27	BR	-23.66389	-46.53833
3449707	Santo Anastácio	27	BR	-21.83833	-51.61028
3449711	Santo Amaro da Imperatriz	26	BR	-27.68806	-48.77861
3449720	Santo Amaro	5	BR	-12.54667	-38.71194
3449741	Santiago	23	BR	-29.19167	-54.86722
3449747	Santa Vitória do Palmar	23	BR	-33.51889	-53.36806
3449793	Santa Rosa de Viterbo	27	BR	-21.47278	-47.36306
3449822	Santa Rosa	23	BR	-27.87083	-54.48139
3449847	Santa Rita do Sapucaí	15	BR	-22.25222	-45.70333
3449851	Santa Rita do Passa Quatro	27	BR	-21.71028	-47.47806
3449933	Santana do Paraíso	15	BR	-19.36361	-42.56861
3449936	Santana do Livramento	23	BR	-30.89083	-55.53278
3449948	Santana de Parnaíba	27	BR	-23.44417	-46.91778
3450063	Santa Maria da Vitória	5	BR	-13.38814	-44.19868
3450083	Santa Maria	23	BR	-29.68417	-53.80694
3450144	Santa Luzia	15	BR	-19.76972	-43.85139
3450157	Santaluz	5	BR	-11.25583	-39.37472
3450188	Santa Isabel	27	BR	-23.31556	-46.22139
3450206	Santa Helena de Goiás	29	BR	-17.81361	-50.59694
3450225	Santa Gertrudes	27	BR	-22.45667	-47.53028
3450232	Santa Fé do Sul	27	BR	-20.21111	-50.92583
3450269	Santa Cruz do Sul	23	BR	-29.7175	-52.42583
3450272	Santa Cruz do Rio Pardo	27	BR	-22.89889	-49.6325
3450283	Santa Cruz das Palmeiras	27	BR	-21.82694	-47.24861
3450376	Santa Cecília	26	BR	-26.96083	-50.42694
3450404	Santa Bárbara d'Oeste	27	BR	-22.75361	-47.41361
3450563	Salto de Pirapora	27	BR	-23.64889	-47.57333
3450594	Salto	27	BR	-23.20083	-47.28694
3450671	Salinas	15	BR	-16.17028	-42.29028
3450759	Sacramento	15	BR	-19.86528	-47.44
3450832	Ruy Barbosa	5	BR	-12.28389	-40.49389
3450843	Rubiataba	29	BR	-15.16444	-49.80333
3450873	Rosário do Sul	23	BR	-30.25833	-54.91417
3450909	Rondonópolis	14	BR	-16.47083	-54.63556
3450963	Rolante	23	BR	-29.65056	-50.57583
3450964	Rolândia	18	BR	-23.30972	-51.36917
3451051	Rio Verde de Mato Grosso	11	BR	-18.91806	-54.84417
3451071	Rio Real	5	BR	-11.48472	-37.93278
3451102	Rio Pardo	23	BR	-29.98972	-52.37806
3451121	Rio Negro	18	BR	-26.10583	-49.7975
3451124	Rio Negrinho	26	BR	-26.25444	-49.51833
3451134	Rio Grande da Serra	27	BR	-23.74417	-46.39833
3451138	Rio Grande	23	BR	-32.035	-52.09861
3451152	Rio do Sul	26	BR	-27.21417	-49.64306
3451190	Rio de Janeiro	21	BR	-22.90278	-43.2075
3451202	Rio das Pedras	27	BR	-22.84333	-47.60611
3451205	Rio das Ostras	21	BR	-22.52694	-41.945
3451234	Rio Claro	27	BR	-22.41139	-47.56139
3451241	Rio Brilhante	11	BR	-21.80194	-54.54639
3451242	Rio Branco do Sul	18	BR	-25.19	-49.31417
3451261	Rio Bonito	21	BR	-22.70861	-42.60972
3451328	Ribeirão Preto	27	BR	-21.1775	-47.81028
3451329	Ribeirão Pires	27	BR	-23.71056	-46.41333
3451353	Ribeirão das Neves	15	BR	-19.76694	-44.08667
3451357	Ribeirão da Ilha	26	BR	-27.69934	-48.53219
3451383	Ribeira do Pombal	5	BR	-10.83444	-38.53583
3451474	Riachão do Jacuípe	5	BR	-11.80694	-39.38556
3451650	Resplendor	15	BR	-19.32556	-41.25528
3451668	Resende	21	BR	-22.46889	-44.44667
3451704	Registro	27	BR	-24.4875	-47.84361
3451709	Regente Feijó	27	BR	-22.22139	-51.30278
3451856	Rancharia	27	BR	-22.22917	-50.89306
3451931	Quirinópolis	29	BR	-18.44833	-50.45167
3452073	Queimados	21	BR	-22.71611	-43.55528
3452141	Quatro Barras	18	BR	-25.36556	-49.07694
3452179	Quaraí	23	BR	-30.3875	-56.45139
3452216	Prudentópolis	18	BR	-25.21306	-50.97778
3452233	Propriá	28	BR	-10.21111	-36.84028
3452237	Promissão	27	BR	-21.53667	-49.85806
3452320	Presidente Venceslau	27	BR	-21.87611	-51.84389
3452324	Presidente Prudente	27	BR	-22.12556	-51.38889
3452331	Presidente Epitácio	27	BR	-21.76333	-52.11556
3452440	Prata	15	BR	-19.30722	-48.92417
3452465	Praia Grande	27	BR	-24.00583	-46.40278
3452483	Prado	5	BR	-17.34111	-39.22083
3452525	Pouso Alegre	15	BR	-22.23	-45.93639
3452599	Posse	29	BR	-14.09306	-46.36944
3452623	Porto União	26	BR	-26.23806	-51.07833
3452640	Porto Seguro	5	BR	-16.44972	-39.06472
3452775	Porto Ferreira	27	BR	-21.85389	-47.47917
3452779	Porto Feliz	27	BR	-23.21472	-47.52389
3452925	Porto Alegre	23	BR	-30.03306	-51.23
3452982	Portão	23	BR	-29.70167	-51.24194
3453014	Porangatu	29	BR	-13.44083	-49.14861
3453060	Pontes e Lacerda	14	BR	-15.22611	-59.33528
3453078	Ponte Nova	15	BR	-20.41639	-42.90861
3453150	Ponta Porã	11	BR	-22.53611	-55.72556
3453171	Pontal	27	BR	-21.0225	-48.03722
3453186	Ponta Grossa	18	BR	-25.095	-50.16194
3453240	Pompéu	15	BR	-19.22444	-44.93528
3453242	Pompéia	27	BR	-22.10861	-50.17167
3453245	Pomerode	26	BR	-26.74056	-49.17694
3453303	Poços de Caldas	15	BR	-21.78778	-46.56139
3453315	Poconé	14	BR	-16.25667	-56.62278
3453337	Poções	5	BR	-14.52972	-40.36528
3453406	Poá	27	BR	-23.52806	-46.34472
3453420	Planaltina	29	BR	-15.45278	-47.61417
3453435	Piúma	8	BR	-20.83778	-40.72194
3453439	Piuí	15	BR	-20.46528	-45.95806
3453457	Pitangui	15	BR	-19.68278	-44.89028
3453467	Pitangueiras	27	BR	-21.00944	-48.22167
3453478	Pitanga	18	BR	-24.75722	-51.76139
3453494	Piritiba	5	BR	-11.73028	-40.55528
3453503	Pires do Rio	29	BR	-17.29972	-48.27944
3453535	Piraquara	18	BR	-25.44227	-49.06795
3453542	Pirapozinho	27	BR	-22.27528	-51.5
3453546	Pirapora	15	BR	-17.345	-44.94194
3453605	Pirajuí	27	BR	-21.99861	-49.45722
3453610	Piraju	27	BR	-23.19361	-49.38389
3453622	Piraí do Sul	18	BR	-24.52611	-49.94861
3453635	Piraí	21	BR	-22.62917	-43.89806
3453639	Pirassununga	27	BR	-21.99611	-47.42583
3453643	Piracicaba	27	BR	-22.72528	-47.64917
3453659	Piracanjuba	29	BR	-17.30278	-49.01667
3453661	Piracaia	27	BR	-23.05389	-46.35806
3453767	Pinheiral	21	BR	-22.51278	-44.00056
3453777	Pinhão	18	BR	-25.69556	-51.65972
3453807	Espírito Santo do Pinhal	27	BR	-22.11583	-46.68278
3453827	Pindobaçu	5	BR	-10.74167	-40.36083
3453837	Pindamonhangaba	27	BR	-22.92389	-45.46167
3453896	Pilar do Sul	27	BR	-23.81306	-47.71639
2968482	Villepinte	11	FR	48.96203	2.53253
3453926	Piedade	27	BR	-23.71194	-47.42778
3454031	Petrópolis	21	BR	-22.505	-43.17861
3454061	Peruíbe	27	BR	-24.32	-46.99833
3454131	Pereira Barreto	27	BR	-20.63833	-51.10917
3454139	Perdões	15	BR	-21.09083	-45.09139
3454213	Penha	26	BR	-26.76944	-48.64583
3454231	Penedo	2	BR	-10.29028	-36.58639
3454235	Penápolis	27	BR	-21.41972	-50.0775
3454244	Pelotas	23	BR	-31.77194	-52.3425
3454358	Pedro Leopoldo	15	BR	-19.61806	-44.04306
3454407	Pedreira	27	BR	-22.74194	-46.90139
3454578	Pedra Azul	15	BR	-16.00528	-41.29722
3454620	Pederneiras	27	BR	-22.35167	-48.775
3454690	Paulínia	27	BR	-22.76111	-47.15417
3454763	Patrocínio	15	BR	-18.94389	-46.9925
3454783	Patos de Minas	15	BR	-18.57889	-46.51806
3454818	Pato Branco	18	BR	-26.22861	-52.67056
3454827	Paty do Alferes	21	BR	-22.42861	-43.41861
3454847	Passos	15	BR	-20.71889	-46.60972
3454857	Passo Fundo	23	BR	-28.26278	-52.40667
3454954	Parobé	23	BR	-29.62861	-50.83472
3455036	Paraty	21	BR	-23.21778	-44.71306
3455051	Paranavaí	18	BR	-23.07306	-52.46528
3455061	Paranapanema	27	BR	-23.3863	-48.72441
3455065	Paranaíba	11	BR	-19.67722	-51.19083
3455070	Paranaguá	18	BR	-25.51626	-48.52537
3455141	Paraíba do Sul	21	BR	-22.15847	-43.29321
3455152	Paraguaçu Paulista	27	BR	-22.41278	-50.57583
3455155	Paraguaçu	15	BR	-21.54722	-45.7375
3455161	Pará de Minas	15	BR	-19.86028	-44.60833
3455168	Paracatu	15	BR	-17.22222	-46.87472
3455170	Paracambi	21	BR	-22.60829	-43.7084
3455281	Panambi	23	BR	-28.2925	-53.50167
3455298	Palotina	18	BR	-24.28389	-53.84
3455342	Palmital	27	BR	-22.78889	-50.2175
3455416	Palmeira das Missões	23	BR	-27.89944	-53.31361
3455425	Palmeira	18	BR	-25.42944	-50.00639
3455459	Palmas	18	BR	-26.48417	-51.99056
3455478	Palhoça	26	BR	-27.64528	-48.66778
3455553	Paiçandu	18	BR	-23.4575	-52.04861
3455580	Padre Bernardo	29	BR	-15.16595	-48.28281
3455671	Ouro Preto	15	BR	-20.39484	-43.50517
3455689	Ouro Branco	15	BR	-20.52334	-43.69486
3455729	Ourinhos	27	BR	-22.97889	-49.87056
3455756	Osvaldo Cruz	27	BR	-21.79667	-50.87861
3455769	Osório	23	BR	-29.88667	-50.26972
3455775	Osasco	27	BR	-23.5325	-46.79167
3455784	Orleans	26	BR	-28.35889	-49.29139
3455785	Orlândia	27	BR	-20.72028	-47.88667
3455908	Oliveira	15	BR	-20.69639	-44.82722
3455923	Olímpia	27	BR	-20.73722	-48.91472
3456060	Novo Horizonte	27	BR	-21.46806	-49.22083
3456068	Novo Hamburgo	23	BR	-29.67833	-51.13056
3456102	Nova Viçosa	5	BR	-17.89194	-39.37194
3456110	Nova Venécia	8	BR	-18.71056	-40.40056
3456125	Nova Prata	23	BR	-28.78389	-51.61
3456127	Nova Petrópolis	23	BR	-29.37639	-51.11444
3456137	Nova Olímpia	14	BR	-14.79722	-57.28806
3456138	Nova Odessa	27	BR	-22.7775	-47.29583
3456147	Nova Lima	15	BR	-19.98556	-43.84667
3456160	Nova Iguaçu	21	BR	-22.75917	-43.45111
3456164	Nova Granada	27	BR	-20.53389	-49.31417
3456166	Nova Friburgo	21	BR	-22.28194	-42.53111
3456176	Nova Era	15	BR	-19.75	-43.0375
3456223	Nossa Senhora do Socorro	28	BR	-10.855	-37.12611
3456240	Nossa Senhora da Glória	28	BR	-10.21833	-37.42028
3456283	Niterói	21	BR	-22.88333	-43.10361
3456285	Niquelândia	29	BR	-14.47389	-48.45972
3456290	Nilópolis	21	BR	-22.8075	-43.41389
3456322	Nerópolis	29	BR	-16.40639	-49.21861
3456324	Nepomuceno	15	BR	-21.23342	-45.23488
3456366	Nazaré	5	BR	-13.035	-39.01444
3456368	Naviraí	11	BR	-23.065	-54.19056
3456370	Navegantes	26	BR	-26.89889	-48.65417
3456398	Nanuque	15	BR	-17.83917	-40.35389
3456412	Muzambinho	15	BR	-21.37583	-46.52556
3456483	Muritiba	5	BR	-12.91667	-39.25
3456500	Muriaé	15	BR	-21.13056	-42.36639
3456593	Mucuri	5	BR	-18.08639	-39.55083
3456696	Morro do Chapéu	5	BR	-11.54852	-41.15804
3456724	Morro Agudo	27	BR	-20.73139	-48.05778
3456735	Morrinhos	29	BR	-17.73111	-49.09944
3456814	Montes Claros	15	BR	-16.735	-43.86167
3456816	Monte Santo de Minas	15	BR	-21.18972	-46.98028
3456826	Montenegro	23	BR	-29.68861	-51.46111
3456827	Monte Mor	27	BR	-22.94667	-47.31583
3456848	Monte Carmelo	15	BR	-18.72472	-47.49861
3456863	Monte Azul Paulista	27	BR	-20.90722	-48.64139
3456866	Monte Aprazível	27	BR	-20.7725	-49.71417
3456873	Monte Alto	27	BR	-21.26111	-48.49639
3456944	Mongaguá	27	BR	-24.09306	-46.62083
3456998	Mogi Mirim	27	BR	-22.43194	-46.95778
3457000	Mogi Guaçu	27	BR	-22.3677	-46.94552
3457001	Mogi das Cruzes	27	BR	-23.52278	-46.18833
3457025	Mococa	27	BR	-21.46778	-47.00472
3457107	Mirandopólis	27	BR	-21.13361	-51.10167
3457133	Miracema	21	BR	-21.41222	-42.19667
3457147	Mineiros	29	BR	-17.56944	-52.55111
3457191	Miguel Pereira	21	BR	-22.45389	-43.46889
3457192	Miguelópolis	27	BR	-20.17944	-48.03194
3457247	Mendes	21	BR	-22.52667	-43.73278
3457359	Medianeira	18	BR	-25.29528	-54.09389
3457360	Medeiros Neto	5	BR	-17.37389	-40.22056
3457381	Mauá	27	BR	-23.66778	-46.46139
3457393	Matozinhos	15	BR	-19.55778	-44.08139
3457484	Mateus Leme	15	BR	-19.98639	-44.42778
3457509	Matão	27	BR	-21.60333	-48.36583
3457528	Mata de São João	5	BR	-12.53028	-38.29917
3457566	Mascote	5	BR	-15.56306	-39.3025
3457595	Martinópolis	27	BR	-22.14583	-51.17083
3457671	Maringá	18	BR	-23.42528	-51.93861
3457692	Marília	27	BR	-22.21389	-49.94583
3457708	Maricá	21	BR	-22.91944	-42.81861
3457736	Mariana	15	BR	-20.37778	-43.41611
3457741	Marialva	18	BR	-23.485	-51.79167
3457772	Marechal Cândido Rondon	18	BR	-24.55611	-54.05667
3457817	Marau	23	BR	-28.44917	-52.2
3457819	Marataizes	8	BR	-21.04333	-40.82444
3457850	Maragogipe	5	BR	-12.77778	-38.91944
3457854	Maracás	5	BR	-13.44111	-40.43083
3457859	Maracaju	11	BR	-21.61444	-55.16833
3457950	Manhumirim	15	BR	-20.35778	-41.95806
3457952	Manhuaçu	15	BR	-20.25806	-42.03361
3457991	Mangaratiba	21	BR	-22.95972	-44.04056
3458049	Mandaguari	18	BR	-23.5475	-51.67083
3458131	Mairiporã	27	BR	-23.31861	-46.58667
3458132	Mairinque	27	BR	-23.54583	-47.18333
3458147	Mafra	26	BR	-26.11139	-49.80528
3458211	Machado	15	BR	-21.67472	-45.91972
3458245	Macatuba	27	BR	-22.50222	-48.71139
3458266	Macaé	21	BR	-22.37083	-41.78694
3458329	Luziânia	29	BR	-16.2525	-47.95028
3458397	Lucas	14	BR	-16.33333	-55.93333
3458406	Louveira	27	BR	-23.08639	-46.95056
3458425	Lorena	27	BR	-22.73083	-45.12472
3458449	Londrina	18	BR	-23.31028	-51.16278
3458479	Loanda	18	BR	-22.92306	-53.13722
3458481	Livramento do Brumado	5	BR	-13.65145	-41.84564
3458494	Lins	27	BR	-21.67861	-49.7425
3458498	Linhares	8	BR	-19.39111	-40.07222
3458575	Limeira	27	BR	-22.56472	-47.40167
3458632	Leopoldina	15	BR	-21.53194	-42.64306
3458645	Lençóis Paulista	27	BR	-22.59861	-48.80028
3458662	Leme	27	BR	-22.18556	-47.39028
3458696	Lavras	15	BR	-21.24528	-44.99972
3458746	Laranjeiras do Sul	18	BR	-25.40778	-52.41611
3458778	Laranjeiras	28	BR	-10.80639	-37.17
3458786	Laranjal Paulista	27	BR	-23.04972	-47.83667
3458826	Lapa	18	BR	-25.76972	-49.71583
3458902	Lajinha	15	BR	-20.15139	-41.62278
3458930	Lages	26	BR	-27.81611	-50.32611
3459035	Lajeado	23	BR	-29.46694	-51.96139
3459094	Laguna	26	BR	-28.4825	-48.78083
3459126	Lagoa Vermelha	23	BR	-28.20861	-51.52583
3459138	Lagoa Santa	15	BR	-19.63006	-43.9009
3459251	Lagoa da Prata	15	BR	-20.0225	-45.54361
3459342	Lagarto	28	BR	-10.91722	-37.65
3459352	Ladário	11	BR	-19.00472	-57.60167
3459462	Jundiaí	27	BR	-23.18639	-46.88417
3459495	Júlio de Castilhos	23	BR	-29.22694	-53.68167
3459505	Juiz de Fora	15	BR	-21.76417	-43.35028
3459550	Juatuba	15	BR	-19.95194	-44.34278
3459667	José Bonifácio	27	BR	-21.05278	-49.68833
3459712	Joinville	26	BR	-26.30444	-48.84556
3459785	João Pinheiro	15	BR	-17.7425	-46.1725
3459796	João Monlevade	15	BR	-19.81	-43.17361
3459869	Joaçaba	26	BR	-27.17806	-51.50472
3459922	Jeremoabo	5	BR	-10.075	-38.48083
3459925	Jequitinhonha	15	BR	-16.43389	-41.00333
3459943	Jequié	5	BR	-13.85875	-40.08512
3460005	Jaú	27	BR	-22.29639	-48.55778
3460064	Jataí	29	BR	-17.87939	-51.72166
3460068	Jarinu	27	BR	-23.10139	-46.72833
3460071	Jardinópolis	27	BR	-21.01778	-47.76389
3460087	Jardim	11	BR	-21.48028	-56.13806
3460102	Jaraguá do Sul	26	BR	-26.48611	-49.06667
3460107	Jaraguá	29	BR	-15.75694	-49.33444
3460132	Japeri	21	BR	-22.64306	-43.65333
3460148	Januária	15	BR	-15.48866	-44.35988
3460170	Jandira	27	BR	-23.5275	-46.9025
3460172	Jandaia do Sul	18	BR	-23.60306	-51.64333
3460174	Janaúba	15	BR	-15.8025	-43.30889
3460186	Jales	27	BR	-20.26889	-50.54583
3460200	Jaguariúna	27	BR	-22.70556	-46.98583
3460214	Jaguariaíva	18	BR	-24.24423	-49.70932
3460225	Jaguarari	5	BR	-10.26389	-40.19583
3460232	Jaguarão	23	BR	-32.56611	-53.37583
3460242	Jaguaquara	5	BR	-13.53056	-39.97083
3460267	Jacutinga	15	BR	-22.28556	-46.61222
3460344	Jacobina	5	BR	-11.18143	-40.51372
3460355	Jaciara	14	BR	-15.96528	-54.96833
3460362	Jacarezinho	18	BR	-23.16056	-49.96944
3460370	Jacareí	27	BR	-23.30528	-45.96583
3460441	Jaboticabal	27	BR	-21.25472	-48.32222
3460484	Ivoti	23	BR	-29.59111	-51.16056
3460511	Ituverava	27	BR	-20.33944	-47.78056
3460513	Iturama	15	BR	-19.72806	-50.19556
3460516	Itupeva	27	BR	-23.15306	-47.05778
3460522	Itumbiara	29	BR	-18.41917	-49.21528
3460523	Ituiutaba	15	BR	-18.97428	-49.46212
3460530	Ituberá	5	BR	-13.73222	-39.14917
3460535	Itu	27	BR	-23.26417	-47.29917
3460542	Itororó	5	BR	-15.11694	-40.07028
3460584	Itaúna	15	BR	-20.07528	-44.57639
3460594	Itatinga	27	BR	-23.10167	-48.61583
3460598	Itatiba	27	BR	-23.00583	-46.83889
3460620	Itararé	27	BR	-24.1125	-49.33167
3460629	Itaqui	23	BR	-29.12528	-56.55306
3460644	Itaquaquecetuba	27	BR	-23.48611	-46.34833
3460648	Itapuranga	29	BR	-15.56222	-49.94861
3460671	Itápolis	27	BR	-21.59556	-48.81278
3460699	Itapira	27	BR	-22.43611	-46.82167
3460718	Itapevi	27	BR	-23.54889	-46.93417
3460723	Itapeva	27	BR	-23.98222	-48.87556
3460728	Itapetininga	27	BR	-23.59167	-48.05306
3460730	Itapetinga	5	BR	-15.24889	-40.24778
3460733	Itaperuna	21	BR	-21.205	-41.88778
3460734	Itaperuçu	18	BR	-25.22	-49.34778
3460738	Itapemirim	8	BR	-21.01111	-40.83389
3460740	Itapema	26	BR	-27.09028	-48.61139
3460748	Itapecerica da Serra	27	BR	-23.71694	-46.84917
3460752	Itapecerica	15	BR	-20.4725	-45.12556
3460764	Itaparica	5	BR	-12.88833	-38.67861
3460773	Itapaci	29	BR	-14.95083	-49.54944
3460774	Itaocara	21	BR	-21.66917	-42.07611
3460791	Itanhaém	27	BR	-24.18306	-46.78889
3460813	Itambé	5	BR	-15.245	-40.62444
3460825	Itamarandiba	15	BR	-17.85722	-42.85889
3460826	Itamaraju	5	BR	-17.03917	-39.53111
3460831	Itajuípe	5	BR	-14.67806	-39.375
3460834	Itajubá	15	BR	-22.42556	-45.45278
3460845	Itajaí	26	BR	-26.90778	-48.66194
3460887	Itaí	27	BR	-23.41778	-49.09056
3460899	Itaguaí	21	BR	-22.85222	-43.77528
3460949	Itabuna	5	BR	-14.78556	-39.28028
3460950	Itaboraí	21	BR	-22.74444	-42.85944
3460954	Itabirito	15	BR	-20.25333	-43.80139
3460960	Itabira	15	BR	-19.61917	-43.22694
3460963	Itaberaí	29	BR	-16.02028	-49.81028
3460966	Itaberaba	5	BR	-12.5275	-40.30694
3460971	Itabaianinha	28	BR	-11.27389	-37.79
3460974	Itabaiana	28	BR	-10.685	-37.42528
3461013	Irecê	5	BR	-11.30417	-41.85583
3461017	Irati	18	BR	-25.46722	-50.65111
3461055	Iracemápolis	27	BR	-22.58056	-47.51861
3461090	Iporá	29	BR	-16.44194	-51.11778
3461124	Ipirá	5	BR	-12.15833	-39.73722
3461129	Ipiaú	5	BR	-14.13449	-39.73948
3461134	Iperó	27	BR	-23.35028	-47.68861
3461144	Ipatinga	15	BR	-19.46833	-42.53667
3461151	Ipameri	29	BR	-17.72194	-48.15972
3461153	Ipaba	15	BR	-19.41361	-42.41944
3461194	Inhumas	29	BR	-16.35778	-49.49611
3461311	Indaiatuba	27	BR	-23.08842	-47.2119
3461316	Indaial	26	BR	-26.89778	-49.23167
3461368	Imbituva	18	BR	-25.23	-50.60444
3461370	Imbituba	26	BR	-28.24	-48.67028
3461411	Ilha Solteira	27	BR	-20.43278	-51.3425
3461444	Ijuí	23	BR	-28.38778	-53.91472
3461465	Iguape	27	BR	-24.70806	-47.55528
3461481	Igrejinha	23	BR	-29.57444	-50.79028
3461498	Igarapé	15	BR	-20.07028	-44.30167
3461499	Igarapava	27	BR	-20.03833	-47.74694
3461501	Igaraçu do Tietê	27	BR	-22.50917	-48.55778
3461519	Içara	26	BR	-28.71333	-49.3
3461525	Ibotirama	5	BR	-12.18528	-43.22056
3461528	Ibiúna	27	BR	-23.65639	-47.2225
3461550	Ibitinga	27	BR	-21.75778	-48.82889
3461563	Ibirité	15	BR	-20.02194	-44.05889
3461565	Ibirataia	5	BR	-14.06694	-39.64056
3461576	Ibirama	26	BR	-27.05694	-49.51778
3461588	Ibiporã	18	BR	-23.26917	-51.04806
3461606	Ibicaraí	5	BR	-14.865	-39.5875
3461620	Ibiá	15	BR	-19.47833	-46.53889
3461625	Ibaté	27	BR	-21.95472	-47.99667
3461628	Ibaiti	18	BR	-23.84861	-50.18778
3461638	Iaçu	5	BR	-12.76722	-40.21167
3461655	Hortolândia	27	BR	-22.85833	-47.22
3461680	Herval	23	BR	-32.02361	-53.39556
3461724	Gurupi	31	BR	-11.72917	-49.06861
3461763	Guaxupé	15	BR	-21.30528	-46.71278
3461786	Guarulhos	27	BR	-23.46278	-46.53333
3461789	Guarujá	27	BR	-23.99306	-46.25639
3461824	Guariba	27	BR	-21.36	-48.22833
3461857	Guaratuba	18	BR	-25.88278	-48.57472
3461859	Guaratinguetá	27	BR	-22.81639	-45.1925
3461871	Guararema	27	BR	-23.415	-46.035
3461874	Guararapes	27	BR	-21.26083	-50.64278
3461879	Guarapuava	18	BR	-25.39048	-51.46541
3461888	Guarapari	8	BR	-20.65367	-40.50204
3461910	Guaranésia	15	BR	-21.29917	-46.8025
3461914	Guaramirim	26	BR	-26.47306	-49.00278
3461935	Guará	27	BR	-20.42833	-47.82417
3461941	Guaporé	23	BR	-28.84556	-51.89028
3461949	Guapimirim	21	BR	-22.53722	-42.98194
3461958	Guanhães	15	BR	-18.775	-42.9325
3461973	Guanambi	5	BR	-14.22333	-42.78139
3461995	Guaíra	27	BR	-20.31833	-48.31056
3462022	Guaçuí	8	BR	-20.77556	-41.67944
3462089	Gravataí	23	BR	-29.94218	-50.99278
3462315	Governador Valadares	15	BR	-18.85111	-41.94944
3462371	Goiatuba	29	BR	-18.0125	-49.35472
3462374	Goiás	29	BR	-15.93444	-50.14028
3462376	Goianira	29	BR	-16.49611	-49.42639
3462377	Goiânia	29	BR	-16.67861	-49.25389
3462378	Goianésia	29	BR	-15.3175	-49.1175
3462535	Gaspar	26	BR	-26.93139	-48.95889
3462557	Garibaldi	23	BR	-29.25611	-51.53361
3462580	Garça	27	BR	-22.21056	-49.65611
3462601	Gandu	5	BR	-13.74389	-39.48667
3462916	Frutal	15	BR	-20.02472	-48.94056
3462956	Frederico Westphalen	23	BR	-27.35917	-53.39444
3462964	Franco da Rocha	27	BR	-23.32167	-46.72694
3462980	Francisco Morato	27	BR	-23.28167	-46.74528
3462996	Francisco Beltrão	18	BR	-26.08111	-53.055
3463011	Franca	27	BR	-20.53861	-47.40083
3463030	Foz do Iguaçu	18	BR	-25.54778	-54.58806
3463066	Forquilhinha	26	BR	-28.7475	-49.47222
3463140	Formosa	29	BR	-15.53722	-47.33444
3463174	Formiga	15	BR	-20.46444	-45.42639
3463237	Florianópolis	26	BR	-27.59667	-48.54917
3463271	Flores da Cunha	23	BR	-29.02889	-51.18167
3463422	Ferraz de Vasconcelos	27	BR	-23.54083	-46.36861
3463432	Fernandópolis	27	BR	-20.28389	-50.24639
3463478	Feira de Santana	5	BR	-12.26667	-38.96667
3463605	Farroupilha	23	BR	-29.225	-51.34778
3463698	Euclides da Cunha	5	BR	-10.5075	-39.01583
3463762	Estrela	23	BR	-28.06111	-50.93833
3463859	Esteio	23	BR	-29.86139	-51.17917
3463865	Estância Velha	23	BR	-29.64833	-51.17389
3463900	Estância	28	BR	-11.26833	-37.43833
3463920	Esplanada	5	BR	-11.79611	-37.945
3463939	Espinosa	15	BR	-14.92611	-42.81917
3464008	Esmeraldas	15	BR	-19.7625	-44.31389
3464073	Erechim	23	BR	-27.63461	-52.2754
3464100	Entre Rios	5	BR	-11.94194	-38.08444
3464255	Encruzilhada do Sul	23	BR	-30.54389	-52.52194
3464274	Encantado	23	BR	-29.23611	-51.86972
3464304	Embu Guaçu	27	BR	-23.83222	-46.81139
3464305	Embu	27	BR	-23.64889	-46.85222
3464329	Elói Mendes	15	BR	-21.61	-45.56528
3464374	Duque de Caxias	21	BR	-22.78556	-43.31167
3464460	Dourados	11	BR	-22.22111	-54.80556
3464547	Dom Pedrito	23	BR	-30.98278	-54.67306
3464579	Dois Vizinhos	18	BR	-25.73361	-53.05722
3464618	Dois Córregos	27	BR	-22.36611	-48.38028
3464688	Divinópolis	15	BR	-20.14355	-44.89065
3464724	Diamantino	14	BR	-14.40861	-56.44611
3464728	Diamantina	15	BR	-18.24692	-43.60345
3464739	Diadema	27	BR	-23.68611	-46.62278
3464809	Descalvado	27	BR	-21.90389	-47.61944
3464891	Curvelo	15	BR	-18.75639	-44.43083
3464974	Curitibanos	26	BR	-27.28278	-50.58444
3464975	Curitiba	18	BR	-25.42778	-49.27306
3465038	Cuiabá	14	BR	-15.59611	-56.09667
3465059	Cubatão	27	BR	-23.895	-46.42528
3465083	Cruzeiro do Oeste	18	BR	-23.785	-53.07333
3465090	Cruzeiro	27	BR	-22.57316	-44.97108
3465105	Cruz das Almas	5	BR	-12.67	-39.10194
3465108	Cruz Alta	23	BR	-28.63861	-53.60639
3465164	Cristalina	29	BR	-16.76769	-47.6153
3465196	Criciúma	26	BR	-28.6775	-49.36972
3465209	Cravinhos	27	BR	-21.34028	-47.72944
3465228	Coxim	11	BR	-18.50667	-54.76
3465284	Cotia	27	BR	-23.60389	-46.91917
3465320	Cosmópolis	27	BR	-22.64583	-47.19611
3465329	Coruripe	2	BR	-10.12556	-36.17556
3465342	Corumbá	11	BR	-19.00917	-57.65333
3465459	Coronel Vivida	18	BR	-25.97972	-52.56778
3465476	Coronel Fabriciano	15	BR	-19.51861	-42.62889
3465487	Coromandel	15	BR	-18.47333	-47.20028
3465508	Cornélio Procópio	18	BR	-23.18111	-50.64667
3465512	Corinto	15	BR	-18.38083	-44.45639
3465524	Cordeirópolis	27	BR	-22.48194	-47.45667
3465527	Cordeiro	21	BR	-22.02861	-42.36083
3465624	Contagem	15	BR	-19.93167	-44.05361
3465644	Conselheiro Lafaiete	15	BR	-20.66028	-43.78611
3465671	Congonhas	15	BR	-20.50525	-43.8588
3465713	Conde	5	BR	-11.81361	-37.61056
3465721	Concórdia	26	BR	-27.23417	-52.02778
3465731	Conchal	27	BR	-22.33028	-47.1725
3465748	Conceição do Coité	5	BR	-11.56389	-39.28278
3465758	Conceição do Jacuípe	5	BR	-12.31667	-38.76667
3465764	Conceição das Alagoas	15	BR	-19.91472	-48.38833
3465767	Conceição da Feira	5	BR	-12.50583	-38.99861
3465769	Conceição da Barra	8	BR	-18.59333	-39.73222
3465881	Colorado	18	BR	-22.8375	-51.97306
3465927	Colombo	18	BR	-25.29167	-49.22417
3465944	Colatina	8	BR	-19.53944	-40.63056
3466041	Coaraci	5	BR	-14.64083	-39.55111
3466062	Cláudio	15	BR	-20.44333	-44.76583
3466171	Cícero Dantas	5	BR	-10.6	-38.38333
3466174	Cianorte	18	BR	-23.66333	-52.605
3466261	Charqueadas	23	BR	-29.95472	-51.62528
3466296	Chapecó	26	BR	-27.09639	-52.61833
3466429	Cerquilho	27	BR	-23.165	-47.74361
3466436	Ceres	29	BR	-15.30833	-49.59833
3466481	Celso Ramos	26	BR	-27.63444	-51.33639
3466537	Caxias do Sul	23	BR	-29.16806	-51.17944
3466547	Caxambu	15	BR	-21.97722	-44.9325
3466641	Catu	5	BR	-12.35306	-38.37889
3466692	Catanduva	27	BR	-21.13778	-48.97278
3466696	Catalão	29	BR	-18.16583	-47.94639
3466698	Cataguases	15	BR	-21.38917	-42.69667
3466704	Castro	18	BR	-24.78927	-50.01225
3466723	Castelo	8	BR	-20.60361	-41.18472
3466750	Cassilândia	11	BR	-19.11333	-51.73417
3466763	Casimiro de Abreu	21	BR	-22.48056	-42.20417
3466779	Cascavel	18	BR	-24.95583	-53.45528
3466824	Casa Branca	27	BR	-21.77389	-47.08639
3466902	Carmo do Paranaíba	15	BR	-19.00083	-46.31611
3466903	Carmo do Cajuru	15	BR	-20.18417	-44.77111
3466933	Carlos Barbosa	23	BR	-29.2975	-51.50361
3466978	Carazinho	23	BR	-28.28389	-52.78639
3466988	Caratinga	15	BR	-19.78972	-42.13917
3466998	Carapicuíba	27	BR	-23.52272	-46.835
3467012	Carangola	15	BR	-20.73306	-42.02944
3467026	Carandaí	15	BR	-20.95361	-43.80639
3467081	Caraguatatuba	27	BR	-23.62028	-45.41306
3467197	Capivari	27	BR	-22.995	-47.50778
3467261	Capinzal	26	BR	-27.34361	-51.61194
3467272	Capim Grosso	5	BR	-11.38111	-40.01278
3467305	Capelinha	15	BR	-17.69139	-42.51583
3467319	Capela	28	BR	-10.50333	-37.05278
3467362	Capão da Canoa	23	BR	-29.74556	-50.00972
3467371	Capâo Bonito	27	BR	-24.00583	-48.34944
3467452	Canoinhas	26	BR	-26.17722	-50.39
3467467	Canoas	23	BR	-29.91778	-51.18361
3467512	Canguçu	23	BR	-31.395	-52.67556
3467530	Canela	23	BR	-29.35622	-50.81357
3467542	Cândido Mota	27	BR	-22.74639	-50.38694
3467550	Candelária	23	BR	-29.66917	-52.78889
3467577	Canavieiras	5	BR	-15.675	-38.94722
3467673	Campo Verde	11	BR	-20.41667	-54.06667
3467677	Campos Novos	26	BR	-27.40167	-51.225
3467680	Campos Gerais	15	BR	-21.235	-45.75861
3467684	Campos do Jordão	27	BR	-22.73944	-45.59139
3467687	Campos Belos	29	BR	-13.03667	-46.77167
3467693	Campos dos Goytacazes	21	BR	-21.75227	-41.33044
3467717	Campo Mourão	18	BR	-24.04309	-52.37929
3467736	Campo Largo	18	BR	-25.45955	-49.53014
3467747	Campo Grande	11	BR	-20.44278	-54.64639
3467760	Campo Formoso	5	BR	-10.5075	-40.32139
3467796	Campo Belo	15	BR	-20.89722	-45.27722
3467865	Campinas	27	BR	-22.90556	-47.06083
3467877	Campina Grande do Sul	18	BR	-25.30556	-49.05528
3467956	Cambuí	15	BR	-22.61222	-46.0575
3467978	Cambé	18	BR	-23.27583	-51.27833
3467985	Cambará	18	BR	-23.04639	-50.07361
3468014	Camaquã	23	BR	-30.85111	-51.81222
3468023	Camanducaia	15	BR	-22.75528	-46.14472
3468031	Camaçari	5	BR	-12.6975	-38.32417
3468100	Caldas Novas	29	BR	-17.74431	-48.62789
3468121	Cajuru	27	BR	-21.27528	-47.30417
3468157	Cajati	27	BR	-24.73611	-48.12278
3468158	Cajamar	27	BR	-23.35611	-46.87694
3468215	Caieiras	27	BR	-23.36417	-46.74056
3468317	Caetité	5	BR	-14.06944	-42.475
3468327	Caeté	15	BR	-19.88	-43.66972
3468376	Cachoeiro de Itapemirim	8	BR	-20.84889	-41.11278
3468403	Cachoeirinha	23	BR	-29.95111	-51.09389
3468425	Cachoeiras de Macacu	21	BR	-22.4625	-42.65306
3468436	Cachoeira do Sul	23	BR	-30.03917	-52.89389
3468535	Cachoeira	5	BR	-12.60139	-38.96576
3468560	Caçapava do Sul	23	BR	-30.51436	-53.48496
3468562	Caçapava	27	BR	-23.10083	-45.70694
3468570	Caçador	26	BR	-26.77528	-51.015
3468592	Cabreúva	27	BR	-23.3075	-47.13278
3468615	Cabo Frio	21	BR	-22.88717	-42.02622
3468704	Butiá	23	BR	-30.11972	-51.96222
3468720	Buritizeiro	15	BR	-17.35111	-44.96222
3468732	Buritis	15	BR	-15.61778	-46.42333
3468802	Buri	27	BR	-23.7975	-48.59278
3468858	Buerarema	5	BR	-14.95944	-39.29972
3468879	Brusque	26	BR	-27.09795	-48.91281
3468893	Brumado	5	BR	-14.20361	-41.66528
3468894	Brumadinho	15	BR	-20.14333	-44.19972
3468899	Brotas	27	BR	-22.28417	-48.12667
3468902	Brodósqui	27	BR	-20.99139	-47.65861
3469058	Brasília	7	BR	-15.77972	-47.92972
3469092	Bragança Paulista	27	BR	-22.9527	-46.54418
3469115	Braço do Norte	26	BR	-28.275	-49.16556
3469136	Botucatu	27	BR	-22.88583	-48.445
3469425	Bom Jesus do Itabapoana	21	BR	-21.13389	-41.67972
3469437	Bom Jesus da Lapa	5	BR	-13.255	-43.41806
3469516	Bom Despacho	15	BR	-19.73639	-45.25222
3469540	Boituva	27	BR	-23.28333	-47.67222
3469601	Bocaiúva	15	BR	-17.10778	-43.815
3469932	Boa Esperança	15	BR	-21.09	-45.56583
3469968	Blumenau	26	BR	-26.91944	-49.06611
3469984	Biritiba Mirim	27	BR	-23.5725	-46.03861
3469989	Birigui	27	BR	-21.28861	-50.34
3470003	Biguaçu	26	BR	-27.49417	-48.65556
3470044	Betim	15	BR	-19.96778	-44.19833
3470052	Bertioga	27	BR	-23.85444	-46.13861
3470073	Bento Gonçalves	23	BR	-29.17139	-51.51917
3470117	Belo Oriente	15	BR	-19.22	-42.48361
3470127	Belo Horizonte	15	BR	-19.92083	-43.93778
3470142	Belford Roxo	21	BR	-22.76417	-43.39944
3470177	Bela Vista	11	BR	-22.10889	-56.52111
3470264	Bebedouro	27	BR	-20.94944	-48.47917
3470279	Bauru	27	BR	-22.31472	-49.06056
3470324	Batatais	27	BR	-20.89111	-47.585
3470341	Bastos	27	BR	-21.92194	-50.73389
3470353	Barueri	27	BR	-23.51056	-46.87611
3470369	Barroso	15	BR	-21.18694	-43.97583
3470428	Barrinha	27	BR	-21.19361	-48.16389
3470451	Barretos	27	BR	-20.55722	-48.56778
3470470	Barreiro do Jaíba	15	BR	-15.61532	-43.59187
3470583	Barreiras	5	BR	-12.15278	-44.99
3470636	Barra Mansa	21	BR	-22.54417	-44.17139
3470674	Barra dos Coqueiros	28	BR	-10.90889	-37.03861
3470691	Barra do Piraí	21	BR	-22.47	-43.82556
3470709	Barra do Garças	14	BR	-15.89	-52.25667
3470718	Barra do Bugres	14	BR	-15.0725	-57.18111
3470730	Barra de São Francisco	8	BR	-18.755	-40.89083
3470776	Barra Bonita	27	BR	-22.49472	-48.55806
3470821	Barra	5	BR	-11.08944	-43.14167
3470825	Bariri	27	BR	-22.07444	-48.74028
3470858	Barbacena	15	BR	-21.22583	-43.77361
3470878	Barão de Cocais	15	BR	-19.94583	-43.48722
3470912	Bandeirantes	18	BR	-23.11	-50.3675
3471005	Bambuí	15	BR	-20.00639	-45.97694
3471039	Balneário Camboriú	26	BR	-26.99056	-48.63472
3471061	Baixo Guandu	8	BR	-19.51889	-41.01583
3471196	Bagé	23	BR	-31.33139	-54.10694
3471291	Avaré	27	BR	-23.09861	-48.92583
3471335	Atibaia	27	BR	-23.11694	-46.55028
3471368	Astorga	18	BR	-23.2325	-51.66556
3471374	Assis	27	BR	-22.66167	-50.41222
3471393	Arujá	27	BR	-23.39611	-46.32083
3471395	Artur Nogueira	27	BR	-22.57306	-47.1725
3471422	Arroio Grande	23	BR	-32.2375	-53.08694
3471428	Arroio do Meio	23	BR	-29.40111	-51.945
3471451	Arraial do Cabo	21	BR	-22.96611	-42.02778
3471487	Armação de Búzios	21	BR	-22.74694	-41.88167
3471683	Arcos	15	BR	-20.28194	-45.53944
3471691	Araxá	15	BR	-19.59333	-46.94056
3471697	Araucária	18	BR	-25.59306	-49.41028
3471715	Araruama	21	BR	-22.87278	-42.34306
3471758	Araras	27	BR	-22.35694	-47.38417
3471766	Araraquara	27	BR	-21.79444	-48.17556
3471772	Araranguá	26	BR	-28.93575	-49.49538
3471798	Arapongas	18	BR	-23.41944	-51.42444
3471830	Araguari	15	BR	-18.64722	-48.18722
3471840	Aragarças	29	BR	-15.8975	-52.25083
3471846	Araçuaí	15	BR	-16.84972	-42.07028
3471848	Aracruz	8	BR	-19.82028	-40.27333
3471849	Araçoiaba da Serra	27	BR	-23.50528	-47.61417
3471854	Araci	5	BR	-11.33333	-38.96667
3471859	Araçatuba	27	BR	-21.20889	-50.43278
3471872	Aracaju	28	BR	-10.91111	-37.07167
3471896	Aquidauana	11	BR	-20.47111	-55.78722
3471910	Apucarana	18	BR	-23.55083	-51.46083
3471927	Apiaí	27	BR	-24.50944	-48.8425
3471940	Aparecida do Taboado	11	BR	-20.08667	-51.09361
3471949	Aparecida	27	BR	-22.84694	-45.22972
3472048	Antonina	18	BR	-25.42861	-48.71194
3472138	Anicuns	29	BR	-16.46111	-49.96167
3472177	Angra dos Reis	21	BR	-23.00667	-44.31806
3472248	Andradina	27	BR	-20.89611	-51.37944
3472254	Andradas	15	BR	-22.06806	-46.56917
3472284	Anastácio	11	BR	-20.48361	-55.80694
3472287	Anápolis	29	BR	-16.32667	-48.95278
3472311	Amparo	27	BR	-22.70111	-46.76444
3472338	Américo Brasiliense	27	BR	-21.72444	-48.10167
3472343	Americana	27	BR	-22.73917	-47.33139
3472370	Amargosa	5	BR	-13.03028	-39.60472
3472417	Álvares Machado	27	BR	-22.07944	-51.47194
3472518	Almirante Tamandaré	18	BR	-25.32472	-49.31
3472520	Almenara	15	BR	-16.18361	-40.69444
3472603	Alfenas	15	BR	-21.42917	-45.94722
3472609	Além Paraíba	15	BR	-21.88778	-42.70444
3472638	Alegrete	23	BR	-29.78306	-55.79194
3472666	Alegre	8	BR	-20.76361	-41.53306
3472766	Alagoinhas	5	BR	-12.13556	-38.41917
3472808	Aimorés	15	BR	-19.49583	-41.06389
3472825	Agudos	27	BR	-22.46917	-48.9875
3472848	Águas Vermelhas	15	BR	-15.74722	-41.46
3472869	Águas de Lindóia	27	BR	-22.47639	-46.63278
3472969	Aguaí	27	BR	-22.05944	-46.97861
3473157	Adamantina	27	BR	-21.68528	-51.0725
3473267	Abaeté	15	BR	-19.16	-45.44583
3473964	Guaíba	23	BR	-30.11389	-51.325
3474574	Palmas	31	BR	-10.16745	-48.32766
3661944	Tefé	4	BR	-3.36841	-64.72054
3661980	Tarauacá	1	BR	-8.16139	-70.76556
3662075	Tabatinga	4	BR	-4.23116	-69.93858
3662155	Sena Madureira	1	BR	-9.06341	-68.67245
3662342	São Gabriel da Cachoeira	4	BR	-0.1181	-67.08527
3662574	Rio Branco	1	BR	-9.97472	-67.81
3662762	Porto Velho	24	BR	-8.76194	-63.90389
3663517	Manaus	4	BR	-3.10194	-60.025
3663529	Manacapuru	4	BR	-3.29972	-60.62056
3664078	Humaitá	4	BR	-7.51651	-63.03105
3664207	Fonte Boa	4	BR	-2.51389	-66.09167
3664321	Eirunepé	4	BR	-6.66028	-69.87361
3664464	Cruzeiro do Sul	1	BR	-7.62759	-72.67756
3664539	Coari	4	BR	-4.085	-63.14139
3664659	Carauari	4	BR	-4.88278	-66.89583
3664980	Boa Vista	25	BR	2.81972	-60.67333
3665199	Ariquemes	24	BR	-9.91333	-63.04083
3665202	Aripuanã	14	BR	-9.16667	-60.63333
3924679	Vilhena	24	BR	-12.74056	-60.14583
3924877	Pôsto Fiscal Rolim de Moura	24	BR	-13.08271	-62.27726
3924908	Pimenta Bueno	24	BR	-11.6725	-61.19361
3924948	Ouro Preto do Oeste	24	BR	-10.74806	-62.21583
3925033	Ji Paraná	24	BR	-10.88528	-61.95167
3925040	Jaru	24	BR	-10.43889	-62.46639
3925075	Guajará Mirim	24	BR	-10.78278	-65.33944
3925212	Cacoal	24	BR	-11.43861	-61.44722
6316406	Aparecida de Goiânia	29	BR	-16.82333	-49.24389
6316729	Campinas	26	BR	-27.59444	-48.60694
6317344	Jaboatão dos Guararapes	30	BR	-8.11278	-35.01472
6317464	Lauro de Freitas	5	BR	-12.89444	-38.32722
6317953	Pinhais	18	BR	-25.44472	-49.1925
6318165	Rio Preto da Eva	4	BR	-2.69795	-59.70172
6318694	Simões Filho	5	BR	-12.78444	-38.40389
6318696	Sinop	14	BR	-11.86417	-55.5025
6693804	Cambebba	6	BR	-3.62092	-38.82913
7874479	Trindade	26	BR	-27.58612	-48.52335
11184422	Planaltina	7	BR	-15.61791	-47.64874
3571824	Nassau	23	BS	25.05823	-77.34306
3571971	Lucaya	25	BS	26.53333	-78.66667
3572375	Freeport	25	BS	26.53333	-78.7
1252416	Thimphu	20	BT	27.46609	89.64191
1252479	Punākha	15	BT	27.59137	89.87743
1252484	Phuntsholing	6	BT	26.85164	89.38837
1252608	Tsirang	7	BT	27.0219	90.12291
933000	Tonota	1	BW	-21.44236	27.46153
933018	Thamaga	6	BW	-24.67014	25.53975
933088	Serowe	1	BW	-22.38754	26.71077
933099	Selebi-Phikwe	1	BW	-21.97895	27.84296
933141	Ramotswa	9	BW	-24.87158	25.86989
933182	Palapye	1	BW	-22.54605	27.12507
933271	Mosopa	10	BW	-24.7718	25.42156
933305	Molepolole	6	BW	-24.40659	25.49508
933331	Mogoditshane	6	BW	-24.62694	25.86556
933340	Mochudi	5	BW	-24.41667	26.15
933366	Maun	11	BW	-19.98333	23.41667
933471	Mahalapye	1	BW	-23.10407	26.81421
933521	Lobatse	9	BW	-25.22435	25.67728
933535	Letlhakane	1	BW	-21.41494	25.59263
933685	Kanye	10	BW	-24.96675	25.33273
933719	Janeng	9	BW	-25.41667	25.55
933773	Gaborone	9	BW	-24.65451	25.90859
933778	Francistown	8	BW	-21.16995	27.50787
618800	Horad Zhodzina	5	BY	54.0985	28.3331
618806	Zhlobin	2	BY	52.8926	30.024
620127	Vitebsk	7	BY	55.1904	30.2049
620181	Vilyeyka	5	BY	54.4914	26.9111
620391	Vawkavysk	3	BY	53.1561	24.4513
621074	Svyetlahorsk	2	BY	52.6329	29.7389
621266	Stowbtsy	5	BY	53.4785	26.7434
621713	Smarhon’	3	BY	54.4798	26.3957
621741	Slutsk	5	BY	53.0274	27.5597
621754	Slonim	3	BY	53.0869	25.3163
622113	Shchuchin	3	BY	53.6014	24.7465
622428	Salihorsk	5	BY	52.7876	27.5415
622739	Rahachow	2	BY	53.0934	30.0495
622794	Rechytsa	2	BY	52.3617	30.3916
622997	Pruzhany	1	BY	52.556	24.4573
623317	Polatsk	7	BY	55.4879	28.7856
623549	Pinsk	1	BY	52.1229	26.0951
623760	Pastavy	7	BY	55.11676	26.83263
624034	Asipovichy	6	BY	53.3011	28.6386
624079	Orsha	7	BY	54.5081	30.4172
624400	Novoye Medvezhino	4	BY	53.88333	27.45
624784	Navapolatsk	7	BY	55.5318	28.5987
624785	Navahrudak	3	BY	53.5942	25.8191
625144	Minsk	4	BY	53.9	27.56667
625324	Mazyr	2	BY	52.0495	29.2456
625367	Masty	3	BY	53.4122	24.5387
625409	Mar’’ina Horka	5	BY	53.509	28.147
625625	Maladzyechna	5	BY	54.3167	26.854
625665	Mahilyow	6	BY	53.9168	30.3449
625743	Lyepyel’	7	BY	54.8814	28.699
625818	Luninyets	1	BY	52.2472	26.8047
626081	Lida	3	BY	53.88333	25.29972
626450	Krychaw	6	BY	53.7125	31.717
627083	Kalodzishchy	5	BY	53.944	27.7823
627145	Kobryn	1	BY	52.2138	24.3564
627751	Kalinkavichy	2	BY	52.1323	29.3257
627800	Ivatsevichy	1	BY	52.709	25.3401
627904	Hrodna	3	BY	53.6884	23.8258
627905	Horki	6	BY	54.2862	30.9863
627907	Gomel	2	BY	52.4345	30.9754
627908	Hlybokaye	7	BY	55.1384	27.6905
628634	Dzyarzhynsk	5	BY	53.6832	27.138
629018	Dobrush	2	BY	52.4089	31.3237
629447	Bykhaw	6	BY	53.521	30.2454
629454	Byaroza	1	BY	52.5314	24.9786
629634	Brest	1	BY	52.09755	23.68775
630376	Horad Barysaw	5	BY	54.2279	28.505
630429	Baranovichi	1	BY	53.1327	26.0139
630468	Babruysk	6	BY	53.1384	29.2214
8020218	Malinovka	4	BY	53.8579	27.4374
3581194	San Ignacio	2	BZ	17.1588	-89.0696
3581514	Orange Walk	4	BZ	18.08124	-88.56328
3582672	Belmopan	2	BZ	17.25	-88.76667
3582677	Belize City	1	BZ	17.49952	-88.19756
5881791	Abbotsford	2	CA	49.05798	-122.25257
5882799	Airdrie	1	CA	51.30011	-114.03528
5882873	Ajax	8	CA	43.85012	-79.03288
5884083	Alma	10	CA	48.55009	-71.6491
5884588	Amos	10	CA	48.56688	-78.11624
5885383	Anmore	2	CA	49.31637	-122.85263
5889745	Baie-Comeau	10	CA	49.21679	-68.14894
5894171	Barrie	8	CA	44.40011	-79.66634
5895650	Beaconsfield	10	CA	45.43341	-73.86586
5897884	Belleville	8	CA	44.16682	-77.38277
5898138	Beloeil	10	CA	45.56678	-73.19915
5903510	Blainville	10	CA	45.66678	-73.88249
5905132	Boisbriand	10	CA	45.61678	-73.83249
5906267	Boucherville	10	CA	45.59104	-73.43605
5907364	Brampton	8	CA	43.68341	-79.76633
5907896	Brandon	3	CA	49.84692	-99.95306
5907983	Brant	8	CA	43.1334	-80.34967
5907990	Brantford	8	CA	43.1334	-80.26636
5909294	Brockville	8	CA	44.59132	-75.68705
5909629	Brossard	10	CA	45.45008	-73.46583
5911592	Burlington	8	CA	43.38621	-79.83713
5911606	Burnaby	2	CA	49.26636	-122.95263
5913490	Calgary	1	CA	51.05011	-114.08529
5913695	Cambridge	8	CA	43.3601	-80.31269
5914132	Campbell River	2	CA	50.01634	-125.24459
5914653	Camrose	1	CA	53.01684	-112.83525
5914826	Candiac	10	CA	45.38338	-73.51587
5919566	Chambly	10	CA	45.45008	-73.28246
5920288	Charlottetown	9	CA	46.23899	-63.13414
5920433	Châteauguay	10	CA	45.38338	-73.74919
5921356	Chilliwack	2	CA	49.16638	-121.95257
5923101	Clarence-Rockland	8	CA	45.5501	-75.29101
5924579	Cobourg	8	CA	43.95977	-78.16515
5924618	Cochrane	1	CA	51.18341	-114.46871
5925975	Collingwood	8	CA	44.4834	-80.21638
5926511	Conception Bay South	5	CA	47.49989	-52.99806
5927689	Coquitlam	2	CA	49.28297	-122.75262
5927969	Corner Brook	5	CA	48.95001	-57.95202
5928065	Cornwall	8	CA	45.01809	-74.72815
5928488	Côte-Saint-Luc	10	CA	45.46536	-73.66585
5930890	Courtenay	2	CA	49.68657	-124.9936
5931800	Cranbrook	2	CA	49.49991	-115.76879
5935277	Dartmouth	7	CA	44.67134	-63.57719
5937615	Delta	2	CA	49.14399	-122.9068
5938513	Deux-Montagnes	10	CA	45.53455	-73.90168
5939219	Dieppe	4	CA	46.07844	-64.68735
5940956	Dollard-Des Ormeaux	10	CA	45.49452	-73.82419
5941925	Dorval	10	CA	45.4473	-73.75335
5942845	Drummondville	10	CA	45.88336	-72.48241
5943865	Duncan	2	CA	48.78293	-123.70266
5946768	Edmonton	1	CA	53.55014	-113.46871
5950267	Etobicoke	8	CA	43.65421	-79.56711
5955815	Fort Erie	8	CA	42.90012	-78.93286
